header: 
  seq: 1781
  stamp: 
    secs: 0
    nsecs:         0
  frame_id: "world"
twist: 
  linear: 
    x: -0.09894255869249383
    y: -1.3462574884177207
    z: 0.0
  angular: 
    x: 0.0
    y: 0.0
    z: -1.644158959388733
---
header: 
  seq: 2072
  stamp: 
    secs: 0
    nsecs:         0
  frame_id: "world"
twist: 
  linear: 
    x: 0.5374393990595051
    y: -1.2383221307655479
    z: 0.0
  angular: 
    x: 0.0
    y: 0.0
    z: -1.1613222360610962
---
header: 
  seq: 2282
  stamp: 
    secs: 0
    nsecs:         0
  frame_id: "world"
twist: 
  linear: 
    x: -0.10022209944219101
    y: -1.346221079383892
    z: 0.0
  angular: 
    x: 0.0
    y: 0.0
    z: -1.6451061964035034
---
header: 
  seq: 2493
  stamp: 
    secs: 0
    nsecs:         0
  frame_id: "world"
twist: 
  linear: 
    x: 0.13480577045476602
    y: -1.3431267336568495
    z: 0.0
  angular: 
    x: 0.0
    y: 0.0
    z: -1.47076416015625
---
header: 
  seq: 2705
  stamp: 
    secs: 0
    nsecs:         0
  frame_id: "world"
twist: 
  linear: 
    x: -0.3319326926025957
    y: -1.3084713978370504
    z: 0.0
  angular: 
    x: 0.0
    y: 0.0
    z: -1.8192353248596191
---
header: 
  seq: 2916
  stamp: 
    secs: 0
    nsecs:         0
  frame_id: "world"
twist: 
  linear: 
    x: 0.3654970686947911
    y: -1.2995328264751587
    z: 0.0
  angular: 
    x: 0.0
    y: 0.0
    z: -1.2966264486312866
---
header: 
  seq: 3126
  stamp: 
    secs: 0
    nsecs:         0
  frame_id: "world"
twist: 
  linear: 
    x: 0.13554779083972116
    y: -1.3431233762042547
    z: 0.0
  angular: 
    x: 0.0
    y: 0.0
    z: -1.470216989517212
---
header: 
  seq: 3337
  stamp: 
    secs: 0
    nsecs:         0
  frame_id: "world"
twist: 
  linear: 
    x: 0.3665632934265222
    y: -1.2992292206787834
    z: 0.0
  angular: 
    x: 0.0
    y: 0.0
    z: -1.2958052158355713
---
header: 
  seq: 3549
  stamp: 
    secs: 0
    nsecs:         0
  frame_id: "world"
twist: 
  linear: 
    x: 0.1356607850390063
    y: -1.3431211799077785
    z: 0.0
  angular: 
    x: 0.0
    y: 0.0
    z: -1.470133662223816
---
header: 
  seq: 3762
  stamp: 
    secs: 0
    nsecs:         0
  frame_id: "world"
twist: 
  linear: 
    x: -0.09062520087360697
    y: -1.3446606730397777
    z: 0.0
  angular: 
    x: 0.0
    y: 0.0
    z: -1.638090968132019
---
header: 
  seq: 3975
  stamp: 
    secs: 0
    nsecs:         0
  frame_id: "world"
twist: 
  linear: 
    x: 0.1374502544858835
    y: -1.34294929375521
    z: 0.0
  angular: 
    x: 0.0
    y: 0.0
    z: -1.4688019752502441
---
header: 
  seq: 4289
  stamp: 
    secs: 0
    nsecs:         0
  frame_id: "world"
twist: 
  linear: 
    x: 0.0
    y: 0.0
    z: 1.0
  angular: 
    x: 0.0
    y: 0.0
    z: -1.560040685988041
---
header: 
  seq: 4537
  stamp: 
    secs: 0
    nsecs:         0
  frame_id: "world"
twist: 
  linear: 
    x: 0.13972351516705897
    y: -1.342635988872124
    z: 0.0
  angular: 
    x: 0.0
    y: 0.0
    z: -1.4671030044555664
---
header: 
  seq: 4775
  stamp: 
    secs: 0
    nsecs:         0
  frame_id: "world"
twist: 
  linear: 
    x: 0.0
    y: 0.0
    z: 1.0
  angular: 
    x: 0.0
    y: 0.0
    z: -1.5516140539636956
---
header: 
  seq: 5101
  stamp: 
    secs: 0
    nsecs:         0
  frame_id: "world"
twist: 
  linear: 
    x: 0.36923818747050186
    y: -1.298473647153555
    z: 0.0
  angular: 
    x: 0.0
    y: 0.0
    z: -1.2937461137771606
---
header: 
  seq: 5313
  stamp: 
    secs: 0
    nsecs:         0
  frame_id: "world"
twist: 
  linear: 
    x: 0.1373105050110243
    y: -1.3429646504748762
    z: 0.0
  angular: 
    x: 0.0
    y: 0.0
    z: -1.4689061641693115
---
header: 
  seq: 5524
  stamp: 
    secs: 0
    nsecs:         0
  frame_id: "world"
twist: 
  linear: 
    x: 0.1383745500238973
    y: -1.342841709443226
    z: 0.0
  angular: 
    x: 0.0
    y: 0.0
    z: -1.4681127071380615
---
header: 
  seq: 5735
  stamp: 
    secs: 0
    nsecs:         0
  frame_id: "world"
twist: 
  linear: 
    x: 0.1383290407299963
    y: -1.342853412294676
    z: 0.0
  angular: 
    x: 0.0
    y: 0.0
    z: -1.4681471586227417
---
header: 
  seq: 5946
  stamp: 
    secs: 0
    nsecs:         0
  frame_id: "world"
twist: 
  linear: 
    x: 0.1380838350902853
    y: -1.3428964372435463
    z: 0.0
  angular: 
    x: 0.0
    y: 0.0
    z: -1.468330979347229
---
header: 
  seq: 6157
  stamp: 
    secs: 0
    nsecs:         0
  frame_id: "world"
twist: 
  linear: 
    x: 0.13866080064541086
    y: -1.3427694409298927
    z: 0.0
  angular: 
    x: 0.0
    y: 0.0
    z: -1.4678963422775269
---
header: 
  seq: 6369
  stamp: 
    secs: 0
    nsecs:         0
  frame_id: "world"
twist: 
  linear: 
    x: 0.13847690142407829
    y: -1.342864767659081
    z: 0.0
  angular: 
    x: 0.0
    y: 0.0
    z: -1.4680390357971191
---
header: 
  seq: 6585
  stamp: 
    secs: 0
    nsecs:         0
  frame_id: "world"
twist: 
  linear: 
    x: 0.13796688752377395
    y: -1.342918790222243
    z: 0.0
  angular: 
    x: 0.0
    y: 0.0
    z: -1.4684189558029175
---
header: 
  seq: 6852
  stamp: 
    secs: 0
    nsecs:         0
  frame_id: "world"
twist: 
  linear: 
    x: 0.0
    y: 0.0
    z: 1.0
  angular: 
    x: 0.0
    y: 0.0
    z: -1.5516337037817705
---
header: 
  seq: 7176
  stamp: 
    secs: 0
    nsecs:         0
  frame_id: "world"
twist: 
  linear: 
    x: 0.0
    y: 0.0
    z: 1.0
  angular: 
    x: 0.0
    y: 0.0
    z: -1.5512730110323867
---
header: 
  seq: 7475
  stamp: 
    secs: 0
    nsecs:         0
  frame_id: "world"
twist: 
  linear: 
    x: 0.13751785737505684
    y: -1.3429037693354764
    z: 0.0
  angular: 
    x: 0.0
    y: 0.0
    z: -1.4687485694885254
---
header: 
  seq: 7688
  stamp: 
    secs: 0
    nsecs:         0
  frame_id: "world"
twist: 
  linear: 
    x: -0.061236844739703075
    y: -0.7377316431569068
    z: 0.0
  angular: 
    x: 0.0
    y: 0.0
    z: -1.6536134481430054
---
header: 
  seq: 7973
  stamp: 
    secs: 0
    nsecs:         0
  frame_id: "world"
twist: 
  linear: 
    x: 0.09594216925812674
    y: -0.36369847148662815
    z: 0.0
  angular: 
    x: 0.0
    y: 0.0
    z: -1.3128761053085327
---
header: 
  seq: 8391
  stamp: 
    secs: 0
    nsecs:         0
  frame_id: "world"
twist: 
  linear: 
    x: 0.0
    y: 0.0
    z: 1.0
  angular: 
    x: 0.0
    y: 0.0
    z: -1.82692850299845
---
header: 
  seq: 8813
  stamp: 
    secs: 0
    nsecs:         0
  frame_id: "world"
twist: 
  linear: 
    x: 0.0
    y: 0.0
    z: 1.0
  angular: 
    x: 0.0
    y: 0.0
    z: -1.8273070758356793
---
header: 
  seq: 9234
  stamp: 
    secs: 0
    nsecs:         0
  frame_id: "world"
twist: 
  linear: 
    x: 0.0
    y: 0.0
    z: 1.0
  angular: 
    x: 0.0
    y: 0.0
    z: -1.8272007925208174
---
header: 
  seq: 9658
  stamp: 
    secs: 0
    nsecs:         0
  frame_id: "world"
twist: 
  linear: 
    x: 0.0
    y: 0.0
    z: 1.0
  angular: 
    x: 0.0
    y: 0.0
    z: -1.826892108480346
---
header: 
  seq: 10081
  stamp: 
    secs: 0
    nsecs:         0
  frame_id: "world"
twist: 
  linear: 
    x: 0.0
    y: 0.0
    z: 1.0
  angular: 
    x: 0.0
    y: 0.0
    z: -1.8270974968341411
---
header: 
  seq: 10503
  stamp: 
    secs: 0
    nsecs:         0
  frame_id: "world"
twist: 
  linear: 
    x: 0.0
    y: 0.0
    z: 1.0
  angular: 
    x: 0.0
    y: 0.0
    z: -1.8271475493410931
---
header: 
  seq: 10927
  stamp: 
    secs: 0
    nsecs:         0
  frame_id: "world"
twist: 
  linear: 
    x: 0.0
    y: 0.0
    z: 1.0
  angular: 
    x: 0.0
    y: 0.0
    z: -1.8273990675855765
---
header: 
  seq: 11355
  stamp: 
    secs: 0
    nsecs:         0
  frame_id: "world"
twist: 
  linear: 
    x: 0.0
    y: 0.0
    z: 1.0
  angular: 
    x: 0.0
    y: 0.0
    z: -1.8274874270439398
---
header: 
  seq: 11780
  stamp: 
    secs: 0
    nsecs:         0
  frame_id: "world"
twist: 
  linear: 
    x: 0.0
    y: 0.0
    z: 1.0
  angular: 
    x: 0.0
    y: 0.0
    z: -1.827303784403869
---
header: 
  seq: 12202
  stamp: 
    secs: 0
    nsecs:         0
  frame_id: "world"
twist: 
  linear: 
    x: 0.0
    y: 0.0
    z: 1.0
  angular: 
    x: 0.0
    y: 0.0
    z: -1.8307497126640366
---
header: 
  seq: 12626
  stamp: 
    secs: 0
    nsecs:         0
  frame_id: "world"
twist: 
  linear: 
    x: 0.0
    y: 0.0
    z: 1.0
  angular: 
    x: 0.0
    y: 0.0
    z: -1.8311642866006754
---
header: 
  seq: 13054
  stamp: 
    secs: 0
    nsecs:         0
  frame_id: "world"
twist: 
  linear: 
    x: 0.0
    y: 0.0
    z: 1.0
  angular: 
    x: 0.0
    y: 0.0
    z: -1.831791958675994
---
header: 
  seq: 13475
  stamp: 
    secs: 0
    nsecs:         0
  frame_id: "world"
twist: 
  linear: 
    x: 0.0
    y: 0.0
    z: 1.0
  angular: 
    x: 0.0
    y: 0.0
    z: -1.8258853185897794
---
header: 
  seq: 13899
  stamp: 
    secs: 0
    nsecs:         0
  frame_id: "world"
twist: 
  linear: 
    x: 0.0
    y: 0.0
    z: 1.0
  angular: 
    x: 0.0
    y: 0.0
    z: -1.8346926294228232
---
header: 
  seq: 14320
  stamp: 
    secs: 0
    nsecs:         0
  frame_id: "world"
twist: 
  linear: 
    x: 0.0
    y: 0.0
    z: 1.0
  angular: 
    x: 0.0
    y: 0.0
    z: -1.8481888923278706
---
header: 
  seq: 14745
  stamp: 
    secs: 0
    nsecs:         0
  frame_id: "world"
twist: 
  linear: 
    x: 0.0
    y: 0.0
    z: 1.0
  angular: 
    x: 0.0
    y: 0.0
    z: -1.873285986139523
---
header: 
  seq: 15169
  stamp: 
    secs: 0
    nsecs:         0
  frame_id: "world"
twist: 
  linear: 
    x: 0.0
    y: 0.0
    z: 1.0
  angular: 
    x: 0.0
    y: 0.0
    z: -1.8737137055505388
---
header: 
  seq: 15595
  stamp: 
    secs: 0
    nsecs:         0
  frame_id: "world"
twist: 
  linear: 
    x: 0.0
    y: 0.0
    z: 1.0
  angular: 
    x: 0.0
    y: 0.0
    z: -1.8741027162495545
---
header: 
  seq: 16018
  stamp: 
    secs: 0
    nsecs:         0
  frame_id: "world"
twist: 
  linear: 
    x: 0.0
    y: 0.0
    z: 1.0
  angular: 
    x: 0.0
    y: 0.0
    z: -1.8732773515959469
---
header: 
  seq: 16444
  stamp: 
    secs: 0
    nsecs:         0
  frame_id: "world"
twist: 
  linear: 
    x: 0.0
    y: 0.0
    z: 1.0
  angular: 
    x: 0.0
    y: 0.0
    z: -1.873439074992484
---
header: 
  seq: 16868
  stamp: 
    secs: 0
    nsecs:         0
  frame_id: "world"
twist: 
  linear: 
    x: 0.0
    y: 0.0
    z: 1.0
  angular: 
    x: 0.0
    y: 0.0
    z: -1.8731259929175605
---
header: 
  seq: 17293
  stamp: 
    secs: 0
    nsecs:         0
  frame_id: "world"
twist: 
  linear: 
    x: 0.0
    y: 0.0
    z: 1.0
  angular: 
    x: 0.0
    y: 0.0
    z: -1.8732486233417567
---
header: 
  seq: 17714
  stamp: 
    secs: 0
    nsecs:         0
  frame_id: "world"
twist: 
  linear: 
    x: 0.0
    y: 0.0
    z: 1.0
  angular: 
    x: 0.0
    y: 0.0
    z: -1.8732501668812227
---
header: 
  seq: 18137
  stamp: 
    secs: 0
    nsecs:         0
  frame_id: "world"
twist: 
  linear: 
    x: 0.0
    y: 0.0
    z: 1.0
  angular: 
    x: 0.0
    y: 0.0
    z: -1.8733605257237218
---
header: 
  seq: 18558
  stamp: 
    secs: 0
    nsecs:         0
  frame_id: "world"
twist: 
  linear: 
    x: 0.0
    y: 0.0
    z: 1.0
  angular: 
    x: 0.0
    y: 0.0
    z: -1.8736957011431419
---
header: 
  seq: 18978
  stamp: 
    secs: 0
    nsecs:         0
  frame_id: "world"
twist: 
  linear: 
    x: 0.0
    y: 0.0
    z: 1.0
  angular: 
    x: 0.0
    y: 0.0
    z: -1.8733973901172027
---
header: 
  seq: 19406
  stamp: 
    secs: 0
    nsecs:         0
  frame_id: "world"
twist: 
  linear: 
    x: 0.0
    y: 0.0
    z: 1.0
  angular: 
    x: 0.0
    y: 0.0
    z: -1.874710825066416
---
header: 
  seq: 19829
  stamp: 
    secs: 0
    nsecs:         0
  frame_id: "world"
twist: 
  linear: 
    x: 0.0
    y: 0.0
    z: 1.0
  angular: 
    x: 0.0
    y: 0.0
    z: -1.869752987393444
---
header: 
  seq: 20253
  stamp: 
    secs: 0
    nsecs:         0
  frame_id: "world"
twist: 
  linear: 
    x: 0.0
    y: 0.0
    z: 1.0
  angular: 
    x: 0.0
    y: 0.0
    z: -1.8701998780060385
---
header: 
  seq: 20682
  stamp: 
    secs: 0
    nsecs:         0
  frame_id: "world"
twist: 
  linear: 
    x: 0.0
    y: 0.0
    z: 1.0
  angular: 
    x: 0.0
    y: 0.0
    z: -1.8741484719571337
---
header: 
  seq: 21107
  stamp: 
    secs: 0
    nsecs:         0
  frame_id: "world"
twist: 
  linear: 
    x: 0.0
    y: 0.0
    z: 1.0
  angular: 
    x: 0.0
    y: 0.0
    z: -1.8713877469654343
---
header: 
  seq: 21531
  stamp: 
    secs: 0
    nsecs:         0
  frame_id: "world"
twist: 
  linear: 
    x: 0.0
    y: 0.0
    z: 1.0
  angular: 
    x: 0.0
    y: 0.0
    z: -1.8714979891747165
---
header: 
  seq: 21956
  stamp: 
    secs: 0
    nsecs:         0
  frame_id: "world"
twist: 
  linear: 
    x: 0.0
    y: 0.0
    z: 1.0
  angular: 
    x: 0.0
    y: 0.0
    z: -1.875843210644275
---
header: 
  seq: 22382
  stamp: 
    secs: 0
    nsecs:         0
  frame_id: "world"
twist: 
  linear: 
    x: 0.0
    y: 0.0
    z: 1.0
  angular: 
    x: 0.0
    y: 0.0
    z: -1.87481475624404
---
header: 
  seq: 22804
  stamp: 
    secs: 0
    nsecs:         0
  frame_id: "world"
twist: 
  linear: 
    x: 0.0
    y: 0.0
    z: 1.0
  angular: 
    x: 0.0
    y: 0.0
    z: -1.878216837209207
---
header: 
  seq: 23227
  stamp: 
    secs: 0
    nsecs:         0
  frame_id: "world"
twist: 
  linear: 
    x: 0.0
    y: 0.0
    z: 1.0
  angular: 
    x: 0.0
    y: 0.0
    z: -1.8778001002288969
---
header: 
  seq: 23650
  stamp: 
    secs: 0
    nsecs:         0
  frame_id: "world"
twist: 
  linear: 
    x: 0.0
    y: 0.0
    z: 1.0
  angular: 
    x: 0.0
    y: 0.0
    z: -1.8777720873106971
---
header: 
  seq: 24073
  stamp: 
    secs: 0
    nsecs:         0
  frame_id: "world"
twist: 
  linear: 
    x: 0.0
    y: 0.0
    z: 1.0
  angular: 
    x: 0.0
    y: 0.0
    z: -1.8780272095256603
---
header: 
  seq: 24495
  stamp: 
    secs: 0
    nsecs:         0
  frame_id: "world"
twist: 
  linear: 
    x: 0.0
    y: 0.0
    z: 1.0
  angular: 
    x: 0.0
    y: 0.0
    z: -1.877982827803938
---
header: 
  seq: 24920
  stamp: 
    secs: 0
    nsecs:         0
  frame_id: "world"
twist: 
  linear: 
    x: 0.0
    y: 0.0
    z: 1.0
  angular: 
    x: 0.0
    y: 0.0
    z: -1.878304456712908
---
header: 
  seq: 25322
  stamp: 
    secs: 0
    nsecs:         0
  frame_id: "world"
twist: 
  linear: 
    x: 0.0
    y: 0.0
    z: 1.0
  angular: 
    x: 0.0
    y: 0.0
    z: -1.878758588675323
---
header: 
  seq: 25746
  stamp: 
    secs: 0
    nsecs:         0
  frame_id: "world"
twist: 
  linear: 
    x: 0.0
    y: 0.0
    z: 1.0
  angular: 
    x: 0.0
    y: 0.0
    z: -1.5078140365606671
---
header: 
  seq: 26149
  stamp: 
    secs: 0
    nsecs:         0
  frame_id: "world"
twist: 
  linear: 
    x: 0.0
    y: 0.0
    z: 1.0
  angular: 
    x: 0.0
    y: 0.0
    z: -5.8008224103934225
---
header: 
  seq: 26519
  stamp: 
    secs: 0
    nsecs:         0
  frame_id: "world"
twist: 
  linear: 
    x: -0.4157792049635419
    y: 0.2710303581092505
    z: 0.0
  angular: 
    x: 0.0
    y: 0.0
    z: 2.5639100074768066
---
header: 
  seq: 26857
  stamp: 
    secs: 0
    nsecs:         0
  frame_id: "world"
twist: 
  linear: 
    x: 0.267493721029301
    y: -0.2795330950694482
    z: 0.0
  angular: 
    x: 0.0
    y: 0.0
    z: -0.8074032664299011
---
header: 
  seq: 27274
  stamp: 
    secs: 0
    nsecs:         0
  frame_id: "world"
twist: 
  linear: 
    x: 0.0
    y: 0.0
    z: 1.0
  angular: 
    x: 0.0
    y: 0.0
    z: 1.5064775167642885
---
header: 
  seq: 27616
  stamp: 
    secs: 0
    nsecs:         0
  frame_id: "world"
twist: 
  linear: 
    x: 0.0
    y: 0.0
    z: 1.0
  angular: 
    x: 0.0
    y: 0.0
    z: 2.9015228884768836
---
header: 
  seq: 27959
  stamp: 
    secs: 0
    nsecs:         0
  frame_id: "world"
twist: 
  linear: 
    x: 0.0
    y: 0.0
    z: 1.0
  angular: 
    x: 0.0
    y: 0.0
    z: 6.002069829081181
---
header: 
  seq: 28350
  stamp: 
    secs: 0
    nsecs:         0
  frame_id: "world"
twist: 
  linear: 
    x: 0.0
    y: 0.0
    z: 1.0
  angular: 
    x: 0.0
    y: 0.0
    z: 1.7125647046924346
---
header: 
  seq: 28664
  stamp: 
    secs: 0
    nsecs:         0
  frame_id: "world"
twist: 
  linear: 
    x: 0.260463443397187
    y: -0.3330133593904527
    z: 0.0
  angular: 
    x: 0.0
    y: 0.0
    z: -0.9070398211479187
---
header: 
  seq: 29018
  stamp: 
    secs: 0
    nsecs:         0
  frame_id: "world"
twist: 
  linear: 
    x: 0.0
    y: 0.0
    z: 1.0
  angular: 
    x: 0.0
    y: 0.0
    z: 0.3477305810310384
---
header: 
  seq: 29353
  stamp: 
    secs: 0
    nsecs:         0
  frame_id: "world"
twist: 
  linear: 
    x: 0.0
    y: 0.0
    z: 1.0
  angular: 
    x: 0.0
    y: 0.0
    z: 2.0747195185622296
---
header: 
  seq: 29697
  stamp: 
    secs: 0
    nsecs:         0
  frame_id: "world"
twist: 
  linear: 
    x: 0.0
    y: 0.0
    z: 1.0
  angular: 
    x: 0.0
    y: 0.0
    z: 4.806445216930795
---
header: 
  seq: 30119
  stamp: 
    secs: 0
    nsecs:         0
  frame_id: "world"
twist: 
  linear: 
    x: 0.0
    y: 0.0
    z: 1.0
  angular: 
    x: 0.0
    y: 0.0
    z: 1.04105601791538
---
header: 
  seq: 30473
  stamp: 
    secs: 0
    nsecs:         0
  frame_id: "world"
twist: 
  linear: 
    x: 0.0
    y: 0.0
    z: 0.0
  angular: 
    x: 0.0
    y: 0.0
    z: -1.3480260372161865
---
header: 
  seq: 30809
  stamp: 
    secs: 0
    nsecs:         0
  frame_id: "world"
twist: 
  linear: 
    x: 0.0
    y: 0.0
    z: 1.0
  angular: 
    x: 0.0
    y: 0.0
    z: -0.27364658065404324
---
header: 
  seq: 31162
  stamp: 
    secs: 0
    nsecs:         0
  frame_id: "world"
twist: 
  linear: 
    x: 0.0
    y: 0.0
    z: 1.0
  angular: 
    x: 0.0
    y: 0.0
    z: 1.958394263115717
---
header: 
  seq: 31501
  stamp: 
    secs: 0
    nsecs:         0
  frame_id: "world"
twist: 
  linear: 
    x: 0.0
    y: 0.0
    z: 1.0
  angular: 
    x: 0.0
    y: 0.0
    z: 5.283765952192777
---
header: 
  seq: 31896
  stamp: 
    secs: 0
    nsecs:         0
  frame_id: "world"
twist: 
  linear: 
    x: 0.07119501789924905
    y: 0.4025596157660505
    z: 0.0
  angular: 
    x: 0.0
    y: 0.0
    z: 1.3957505226135254
---
header: 
  seq: 32221
  stamp: 
    secs: 0
    nsecs:         0
  frame_id: "world"
twist: 
  linear: 
    x: -0.14413867676576697
    y: -0.4134436230414771
    z: 0.0
  angular: 
    x: 0.0
    y: 0.0
    z: -1.906249761581421
---
header: 
  seq: 32620
  stamp: 
    secs: 0
    nsecs:         0
  frame_id: "world"
twist: 
  linear: 
    x: 0.0
    y: 0.0
    z: 1.0
  angular: 
    x: 0.0
    y: 0.0
    z: -0.06407608596239248
---
header: 
  seq: 32969
  stamp: 
    secs: 0
    nsecs:         0
  frame_id: "world"
twist: 
  linear: 
    x: 0.0
    y: 0.0
    z: 1.0
  angular: 
    x: 0.0
    y: 0.0
    z: 2.241622495366629
---
header: 
  seq: 33312
  stamp: 
    secs: 0
    nsecs:         0
  frame_id: "world"
twist: 
  linear: 
    x: 0.0
    y: 0.0
    z: 1.0
  angular: 
    x: 0.0
    y: 0.0
    z: 4.685062510257203
---
header: 
  seq: 33683
  stamp: 
    secs: 0
    nsecs:         0
  frame_id: "world"
twist: 
  linear: 
    x: 0.2632936569427426
    y: 0.331438838482008
    z: 0.0
  angular: 
    x: 0.0
    y: 0.0
    z: 0.8994818329811096
---
header: 
  seq: 34005
  stamp: 
    secs: 0
    nsecs:         0
  frame_id: "world"
twist: 
  linear: 
    x: 0.0
    y: 0.0
    z: 1.0
  angular: 
    x: 0.0
    y: 0.0
    z: 4.165808777535954
---
header: 
  seq: 34426
  stamp: 
    secs: 0
    nsecs:         0
  frame_id: "world"
twist: 
  linear: 
    x: 0.0
    y: 0.0
    z: 1.0
  angular: 
    x: 0.0
    y: 0.0
    z: 0.0902121346644694
---
header: 
  seq: 34785
  stamp: 
    secs: 0
    nsecs:         0
  frame_id: "world"
twist: 
  linear: 
    x: 0.0
    y: 0.0
    z: 1.0
  angular: 
    x: 0.0
    y: 0.0
    z: 2.5782702515969413
---
header: 
  seq: 35129
  stamp: 
    secs: 0
    nsecs:         0
  frame_id: "world"
twist: 
  linear: 
    x: 0.0
    y: 0.0
    z: 1.0
  angular: 
    x: 0.0
    y: 0.0
    z: -1.4613418909431666
---
header: 
  seq: 35468
  stamp: 
    secs: 0
    nsecs:         0
  frame_id: "world"
twist: 
  linear: 
    x: 0.0
    y: 0.0
    z: 1.0
  angular: 
    x: 0.0
    y: 0.0
    z: 0.8545341549450894
---
header: 
  seq: 35816
  stamp: 
    secs: 0
    nsecs:         0
  frame_id: "world"
twist: 
  linear: 
    x: 0.0
    y: 0.0
    z: 1.0
  angular: 
    x: 0.0
    y: 0.0
    z: 3.891728446245066
---
header: 
  seq: 36226
  stamp: 
    secs: 0
    nsecs:         0
  frame_id: "world"
twist: 
  linear: 
    x: 0.37077664924017983
    y: 0.034304858952201915
    z: 0.0
  angular: 
    x: 0.0
    y: 0.0
    z: 0.09225896745920181
---
header: 
  seq: 36557
  stamp: 
    secs: 0
    nsecs:         0
  frame_id: "world"
twist: 
  linear: 
    x: -0.4020701807612773
    y: 0.0021913829069819214
    z: 0.0
  angular: 
    x: 0.0
    y: 0.0
    z: 3.1361424922943115
---
header: 
  seq: 36911
  stamp: 
    secs: 0
    nsecs:         0
  frame_id: "world"
twist: 
  linear: 
    x: 0.0
    y: 0.0
    z: 1.0
  angular: 
    x: 0.0
    y: 0.0
    z: -1.4361899156712048
---
header: 
  seq: 37266
  stamp: 
    secs: 0
    nsecs:         0
  frame_id: "world"
twist: 
  linear: 
    x: 0.0
    y: 0.0
    z: 1.0
  angular: 
    x: 0.0
    y: 0.0
    z: 0.6960250919550737
---
header: 
  seq: 37625
  stamp: 
    secs: 0
    nsecs:         0
  frame_id: "world"
twist: 
  linear: 
    x: -0.38099366083735375
    y: 0.10090327524694194
    z: 0.0
  angular: 
    x: 0.0
    y: 0.0
    z: 2.8826942443847656
---
header: 
  seq: 38040
  stamp: 
    secs: 0
    nsecs:         0
  frame_id: "world"
twist: 
  linear: 
    x: 0.0
    y: 0.0
    z: 1.0
  angular: 
    x: 0.0
    y: 0.0
    z: -0.6277467962703124
---
header: 
  seq: 38378
  stamp: 
    secs: 0
    nsecs:         0
  frame_id: "world"
twist: 
  linear: 
    x: -0.3422443013901713
    y: 0.16368688624646785
    z: 0.0
  angular: 
    x: 0.0
    y: 0.0
    z: 2.6954758167266846
---
header: 
  seq: 38725
  stamp: 
    secs: 0
    nsecs:         0
  frame_id: "world"
twist: 
  linear: 
    x: 0.0
    y: 0.0
    z: 1.0
  angular: 
    x: 0.0
    y: 0.0
    z: -1.9933327585961398
---
header: 
  seq: 39089
  stamp: 
    secs: 0
    nsecs:         0
  frame_id: "world"
twist: 
  linear: 
    x: 0.0
    y: 0.0
    z: 1.0
  angular: 
    x: 0.0
    y: 0.0
    z: 0.1644315640579307
---
header: 
  seq: 39460
  stamp: 
    secs: 0
    nsecs:         0
  frame_id: "world"
twist: 
  linear: 
    x: -0.32390549340588026
    y: 0.19834456584312554
    z: 0.0
  angular: 
    x: 0.0
    y: 0.0
    z: 2.592139482498169
---
header: 
  seq: 39851
  stamp: 
    secs: 0
    nsecs:         0
  frame_id: "world"
twist: 
  linear: 
    x: 0.0
    y: 0.0
    z: 1.0
  angular: 
    x: 0.0
    y: 0.0
    z: -1.508700822984367
---
header: 
  seq: 40193
  stamp: 
    secs: 0
    nsecs:         0
  frame_id: "world"
twist: 
  linear: 
    x: 0.0
    y: 0.0
    z: 1.0
  angular: 
    x: 0.0
    y: 0.0
    z: 0.6060482189024965
---
header: 
  seq: 40514
  stamp: 
    secs: 0
    nsecs:         0
  frame_id: "world"
twist: 
  linear: 
    x: 0.0
    y: 0.0
    z: 1.0
  angular: 
    x: 0.0
    y: 0.0
    z: 2.4560961009710764
---
header: 
  seq: 40924
  stamp: 
    secs: 0
    nsecs:         0
  frame_id: "world"
twist: 
  linear: 
    x: 0.14214510332708155
    y: -0.36585794735176363
    z: 0.0
  angular: 
    x: 0.0
    y: 0.0
    z: -1.2002208232879639
---
header: 
  seq: 41283
  stamp: 
    secs: 0
    nsecs:         0
  frame_id: "world"
twist: 
  linear: 
    x: 0.0
    y: 0.0
    z: 1.0
  angular: 
    x: 0.0
    y: 0.0
    z: 1.1236271381490717
---
header: 
  seq: 41633
  stamp: 
    secs: 0
    nsecs:         0
  frame_id: "world"
twist: 
  linear: 
    x: 0.0
    y: 0.0
    z: 1.0
  angular: 
    x: 0.0
    y: 0.0
    z: -3.0003228259731416
---
header: 
  seq: 41994
  stamp: 
    secs: 0
    nsecs:         0
  frame_id: "world"
twist: 
  linear: 
    x: 0.0
    y: 0.0
    z: 1.0
  angular: 
    x: 0.0
    y: 0.0
    z: -0.9218203579640968
---
header: 
  seq: 42405
  stamp: 
    secs: 0
    nsecs:         0
  frame_id: "world"
twist: 
  linear: 
    x: -0.07220340753928024
    y: 0.3783396443720127
    z: 0.0
  angular: 
    x: 0.0
    y: 0.0
    z: 1.7593717575073242
---
header: 
  seq: 42765
  stamp: 
    secs: 0
    nsecs:         0
  frame_id: "world"
twist: 
  linear: 
    x: 0.0
    y: 0.0
    z: 1.0
  angular: 
    x: 0.0
    y: 0.0
    z: -2.9849502983223837
---
header: 
  seq: 43119
  stamp: 
    secs: 0
    nsecs:         0
  frame_id: "world"
twist: 
  linear: 
    x: 0.0
    y: 0.0
    z: 1.0
  angular: 
    x: 0.0
    y: 0.0
    z: -0.8103406816064098
---
header: 
  seq: 43474
  stamp: 
    secs: 0
    nsecs:         0
  frame_id: "world"
twist: 
  linear: 
    x: -0.02701888833736002
    y: 0.39004298792859055
    z: 0.0
  angular: 
    x: 0.0
    y: 0.0
    z: 1.6399574279785156
---
header: 
  seq: 43886
  stamp: 
    secs: 0
    nsecs:         0
  frame_id: "world"
twist: 
  linear: 
    x: 0.0
    y: 0.0
    z: 1.0
  angular: 
    x: 0.0
    y: 0.0
    z: -2.395172183618612
---
header: 
  seq: 44233
  stamp: 
    secs: 0
    nsecs:         0
  frame_id: "world"
twist: 
  linear: 
    x: 0.0
    y: 0.0
    z: 1.0
  angular: 
    x: 0.0
    y: 0.0
    z: -0.12361714814339489
---
header: 
  seq: 44584
  stamp: 
    secs: 0
    nsecs:         0
  frame_id: "world"
twist: 
  linear: 
    x: 0.0
    y: 0.0
    z: 1.0
  angular: 
    x: 0.0
    y: 0.0
    z: -4.042905565166904
---
header: 
  seq: 44938
  stamp: 
    secs: 0
    nsecs:         0
  frame_id: "world"
twist: 
  linear: 
    x: 1.1136184636636253
    y: -0.7631212368841837
    z: 0.0
  angular: 
    x: 0.0
    y: 0.0
    z: -0.6007665991783142
---
header: 
  seq: 45151
  stamp: 
    secs: 0
    nsecs:         0
  frame_id: "world"
twist: 
  linear: 
    x: 1.1135636629983043
    y: -0.7632011852356716
    z: 0.0
  angular: 
    x: 0.0
    y: 0.0
    z: -0.6008383631706238
---
header: 
  seq: 45362
  stamp: 
    secs: 0
    nsecs:         0
  frame_id: "world"
twist: 
  linear: 
    x: 1.3240806211844935
    y: -0.07630765047070875
    z: 0.0
  angular: 
    x: 0.0
    y: 0.0
    z: -0.057567011564970016
---
header: 
  seq: 45601
  stamp: 
    secs: 0
    nsecs:         0
  frame_id: "world"
twist: 
  linear: 
    x: 0.6013693071999586
    y: -1.1887695062372579
    z: 0.0
  angular: 
    x: 0.0
    y: 0.0
    z: -1.10245943069458
---
header: 
  seq: 45864
  stamp: 
    secs: 0
    nsecs:         0
  frame_id: "world"
twist: 
  linear: 
    x: 0.0
    y: 0.0
    z: 1.0
  angular: 
    x: 0.0
    y: 0.0
    z: -1.6584457159042358
---
header: 
  seq: 46269
  stamp: 
    secs: 0
    nsecs:         0
  frame_id: "world"
twist: 
  linear: 
    x: 0.0
    y: 0.0
    z: 1.0
  angular: 
    x: 0.0
    y: 0.0
    z: -1.6916141510009766
---
header: 
  seq: 46694
  stamp: 
    secs: 0
    nsecs:         0
  frame_id: "world"
twist: 
  linear: 
    x: 0.0
    y: 0.0
    z: 1.0
  angular: 
    x: 0.0
    y: 0.0
    z: -1.6882878541946411
---
header: 
  seq: 47118
  stamp: 
    secs: 0
    nsecs:         0
  frame_id: "world"
twist: 
  linear: 
    x: 0.0
    y: 0.0
    z: 1.0
  angular: 
    x: 0.0
    y: 0.0
    z: -1.6860637664794922
---
header: 
  seq: 47542
  stamp: 
    secs: 0
    nsecs:         0
  frame_id: "world"
twist: 
  linear: 
    x: 0.0
    y: 0.0
    z: 1.0
  angular: 
    x: 0.0
    y: 0.0
    z: -1.6897597312927246
---
header: 
  seq: 47964
  stamp: 
    secs: 0
    nsecs:         0
  frame_id: "world"
twist: 
  linear: 
    x: 0.0
    y: 0.0
    z: 1.0
  angular: 
    x: 0.0
    y: 0.0
    z: -1.6919002532958984
---
header: 
  seq: 48387
  stamp: 
    secs: 0
    nsecs:         0
  frame_id: "world"
twist: 
  linear: 
    x: 0.0
    y: 0.0
    z: 1.0
  angular: 
    x: 0.0
    y: 0.0
    z: -1.691314458847046
---
header: 
  seq: 48814
  stamp: 
    secs: 0
    nsecs:         0
  frame_id: "world"
twist: 
  linear: 
    x: 0.0
    y: 0.0
    z: 1.0
  angular: 
    x: 0.0
    y: 0.0
    z: -1.6953983306884766
---
header: 
  seq: 49240
  stamp: 
    secs: 0
    nsecs:         0
  frame_id: "world"
twist: 
  linear: 
    x: 0.0
    y: 0.0
    z: 1.0
  angular: 
    x: 0.0
    y: 0.0
    z: -1.6956181526184082
---
header: 
  seq: 49664
  stamp: 
    secs: 0
    nsecs:         0
  frame_id: "world"
twist: 
  linear: 
    x: 0.0
    y: 0.0
    z: 1.0
  angular: 
    x: 0.0
    y: 0.0
    z: -1.6957480907440186
---
header: 
  seq: 50087
  stamp: 
    secs: 0
    nsecs:         0
  frame_id: "world"
twist: 
  linear: 
    x: 0.0
    y: 0.0
    z: 1.0
  angular: 
    x: 0.0
    y: 0.0
    z: -1.696457862854004
---
header: 
  seq: 50509
  stamp: 
    secs: 0
    nsecs:         0
  frame_id: "world"
twist: 
  linear: 
    x: 0.0
    y: 0.0
    z: 1.0
  angular: 
    x: 0.0
    y: 0.0
    z: -1.6938785314559937
---
header: 
  seq: 50933
  stamp: 
    secs: 0
    nsecs:         0
  frame_id: "world"
twist: 
  linear: 
    x: 0.0
    y: 0.0
    z: 1.0
  angular: 
    x: 0.0
    y: 0.0
    z: -1.6953173875808716
---
header: 
  seq: 51361
  stamp: 
    secs: 0
    nsecs:         0
  frame_id: "world"
twist: 
  linear: 
    x: 0.0
    y: 0.0
    z: 1.0
  angular: 
    x: 0.0
    y: 0.0
    z: -1.6938772201538086
---
header: 
  seq: 51789
  stamp: 
    secs: 0
    nsecs:         0
  frame_id: "world"
twist: 
  linear: 
    x: 0.0
    y: 0.0
    z: 1.0
  angular: 
    x: 0.0
    y: 0.0
    z: -1.6948018074035645
---
header: 
  seq: 52194
  stamp: 
    secs: 0
    nsecs:         0
  frame_id: "world"
twist: 
  linear: 
    x: 0.0
    y: 0.0
    z: 1.0
  angular: 
    x: 0.0
    y: 0.0
    z: -1.6933199167251587
---
header: 
  seq: 52619
  stamp: 
    secs: 0
    nsecs:         0
  frame_id: "world"
twist: 
  linear: 
    x: 0.0
    y: 0.0
    z: 1.0
  angular: 
    x: 0.0
    y: 0.0
    z: -1.693485975265503
---
header: 
  seq: 53042
  stamp: 
    secs: 0
    nsecs:         0
  frame_id: "world"
twist: 
  linear: 
    x: 0.0
    y: 0.0
    z: 1.0
  angular: 
    x: 0.0
    y: 0.0
    z: -1.6942801475524902
---
header: 
  seq: 53465
  stamp: 
    secs: 0
    nsecs:         0
  frame_id: "world"
twist: 
  linear: 
    x: 0.0
    y: 0.0
    z: 1.0
  angular: 
    x: 0.0
    y: 0.0
    z: -1.6947174072265625
---
header: 
  seq: 53892
  stamp: 
    secs: 0
    nsecs:         0
  frame_id: "world"
twist: 
  linear: 
    x: 0.0
    y: 0.0
    z: 1.0
  angular: 
    x: 0.0
    y: 0.0
    z: -1.6938438415527344
---
header: 
  seq: 54315
  stamp: 
    secs: 0
    nsecs:         0
  frame_id: "world"
twist: 
  linear: 
    x: 0.0
    y: 0.0
    z: 1.0
  angular: 
    x: 0.0
    y: 0.0
    z: -1.693054437637329
---
header: 
  seq: 54744
  stamp: 
    secs: 0
    nsecs:         0
  frame_id: "world"
twist: 
  linear: 
    x: 0.0
    y: 0.0
    z: 1.0
  angular: 
    x: 0.0
    y: 0.0
    z: -1.6908657550811768
---
header: 
  seq: 55172
  stamp: 
    secs: 0
    nsecs:         0
  frame_id: "world"
twist: 
  linear: 
    x: 0.0
    y: 0.0
    z: 1.0
  angular: 
    x: 0.0
    y: 0.0
    z: -1.692842721939087
---
header: 
  seq: 55576
  stamp: 
    secs: 0
    nsecs:         0
  frame_id: "world"
twist: 
  linear: 
    x: 0.0
    y: 0.0
    z: 1.0
  angular: 
    x: 0.0
    y: 0.0
    z: -1.692091941833496
---
header: 
  seq: 55998
  stamp: 
    secs: 0
    nsecs:         0
  frame_id: "world"
twist: 
  linear: 
    x: 0.0
    y: 0.0
    z: 1.0
  angular: 
    x: 0.0
    y: 0.0
    z: -1.6909006834030151
---
header: 
  seq: 56423
  stamp: 
    secs: 0
    nsecs:         0
  frame_id: "world"
twist: 
  linear: 
    x: 0.0
    y: 0.0
    z: 1.0
  angular: 
    x: 0.0
    y: 0.0
    z: -1.6913111209869385
---
header: 
  seq: 56844
  stamp: 
    secs: 0
    nsecs:         0
  frame_id: "world"
twist: 
  linear: 
    x: 0.0
    y: 0.0
    z: 1.0
  angular: 
    x: 0.0
    y: 0.0
    z: -1.69187331199646
---
header: 
  seq: 57267
  stamp: 
    secs: 0
    nsecs:         0
  frame_id: "world"
twist: 
  linear: 
    x: 0.0
    y: 0.0
    z: 1.0
  angular: 
    x: 0.0
    y: 0.0
    z: -1.6918513774871826
---
header: 
  seq: 57691
  stamp: 
    secs: 0
    nsecs:         0
  frame_id: "world"
twist: 
  linear: 
    x: 0.0
    y: 0.0
    z: 1.0
  angular: 
    x: 0.0
    y: 0.0
    z: -1.691150188446045
---
header: 
  seq: 58095
  stamp: 
    secs: 0
    nsecs:         0
  frame_id: "world"
twist: 
  linear: 
    x: 0.0
    y: 0.0
    z: 1.0
  angular: 
    x: 0.0
    y: 0.0
    z: -1.6929004192352295
---
header: 
  seq: 58521
  stamp: 
    secs: 0
    nsecs:         0
  frame_id: "world"
twist: 
  linear: 
    x: 0.0
    y: 0.0
    z: 1.0
  angular: 
    x: 0.0
    y: 0.0
    z: -1.6936397552490234
---
header: 
  seq: 58943
  stamp: 
    secs: 0
    nsecs:         0
  frame_id: "world"
twist: 
  linear: 
    x: 0.0
    y: 0.0
    z: 1.0
  angular: 
    x: 0.0
    y: 0.0
    z: -1.696167230606079
---
header: 
  seq: 59366
  stamp: 
    secs: 0
    nsecs:         0
  frame_id: "world"
twist: 
  linear: 
    x: 0.0
    y: 0.0
    z: 1.0
  angular: 
    x: 0.0
    y: 0.0
    z: -1.6938663721084595
---
header: 
  seq: 59773
  stamp: 
    secs: 0
    nsecs:         0
  frame_id: "world"
twist: 
  linear: 
    x: 0.0
    y: 0.0
    z: 1.0
  angular: 
    x: 0.0
    y: 0.0
    z: -1.6965397596359253
---
header: 
  seq: 60198
  stamp: 
    secs: 0
    nsecs:         0
  frame_id: "world"
twist: 
  linear: 
    x: 0.0
    y: 0.0
    z: 1.0
  angular: 
    x: 0.0
    y: 0.0
    z: -1.6945310831069946
---
header: 
  seq: 60621
  stamp: 
    secs: 0
    nsecs:         0
  frame_id: "world"
twist: 
  linear: 
    x: 0.0
    y: 0.0
    z: 1.0
  angular: 
    x: 0.0
    y: 0.0
    z: -1.6932469606399536
---
header: 
  seq: 61044
  stamp: 
    secs: 0
    nsecs:         0
  frame_id: "world"
twist: 
  linear: 
    x: 0.0
    y: 0.0
    z: 1.0
  angular: 
    x: 0.0
    y: 0.0
    z: -1.6925461292266846
---
header: 
  seq: 61468
  stamp: 
    secs: 0
    nsecs:         0
  frame_id: "world"
twist: 
  linear: 
    x: 0.0
    y: 0.0
    z: 1.0
  angular: 
    x: 0.0
    y: 0.0
    z: -1.693162441253662
---
header: 
  seq: 61895
  stamp: 
    secs: 0
    nsecs:         0
  frame_id: "world"
twist: 
  linear: 
    x: 0.0
    y: 0.0
    z: 1.0
  angular: 
    x: 0.0
    y: 0.0
    z: -1.6937013864517212
---
header: 
  seq: 62318
  stamp: 
    secs: 0
    nsecs:         0
  frame_id: "world"
twist: 
  linear: 
    x: 0.0
    y: 0.0
    z: 1.0
  angular: 
    x: 0.0
    y: 0.0
    z: -1.693251132965088
---
header: 
  seq: 62747
  stamp: 
    secs: 0
    nsecs:         0
  frame_id: "world"
twist: 
  linear: 
    x: 0.0
    y: 0.0
    z: 1.0
  angular: 
    x: 0.0
    y: 0.0
    z: -1.6937230825424194
---
header: 
  seq: 63172
  stamp: 
    secs: 0
    nsecs:         0
  frame_id: "world"
twist: 
  linear: 
    x: 0.0
    y: 0.0
    z: 1.0
  angular: 
    x: 0.0
    y: 0.0
    z: -1.6932276487350464
---
header: 
  seq: 63599
  stamp: 
    secs: 0
    nsecs:         0
  frame_id: "world"
twist: 
  linear: 
    x: 0.0
    y: 0.0
    z: 1.0
  angular: 
    x: 0.0
    y: 0.0
    z: -1.6932477951049805
---
header: 
  seq: 64021
  stamp: 
    secs: 0
    nsecs:         0
  frame_id: "world"
twist: 
  linear: 
    x: 0.0
    y: 0.0
    z: 1.0
  angular: 
    x: 0.0
    y: 0.0
    z: -1.692537546157837
---
header: 
  seq: 64442
  stamp: 
    secs: 0
    nsecs:         0
  frame_id: "world"
twist: 
  linear: 
    x: 0.0
    y: 0.0
    z: 1.0
  angular: 
    x: 0.0
    y: 0.0
    z: -1.694143533706665
---
header: 
  seq: 64865
  stamp: 
    secs: 0
    nsecs:         0
  frame_id: "world"
twist: 
  linear: 
    x: 0.0
    y: 0.0
    z: 1.0
  angular: 
    x: 0.0
    y: 0.0
    z: -1.6957002878189087
---
header: 
  seq: 65296
  stamp: 
    secs: 0
    nsecs:         0
  frame_id: "world"
twist: 
  linear: 
    x: 0.0
    y: 0.0
    z: 1.0
  angular: 
    x: 0.0
    y: 0.0
    z: -1.6914843320846558
---
header: 
  seq: 65722
  stamp: 
    secs: 0
    nsecs:         0
  frame_id: "world"
twist: 
  linear: 
    x: 0.0
    y: 0.0
    z: 1.0
  angular: 
    x: 0.0
    y: 0.0
    z: -1.6937471628189087
---
header: 
  seq: 66135
  stamp: 
    secs: 0
    nsecs:         0
  frame_id: "world"
twist: 
  linear: 
    x: 0.0
    y: 0.0
    z: 1.0
  angular: 
    x: 0.0
    y: 0.0
    z: -1.694928765296936
---
header: 
  seq: 66563
  stamp: 
    secs: 0
    nsecs:         0
  frame_id: "world"
twist: 
  linear: 
    x: 0.0
    y: 0.0
    z: 1.0
  angular: 
    x: 0.0
    y: 0.0
    z: -1.6948120594024658
---
header: 
  seq: 66986
  stamp: 
    secs: 0
    nsecs:         0
  frame_id: "world"
twist: 
  linear: 
    x: 0.0
    y: 0.0
    z: 1.0
  angular: 
    x: 0.0
    y: 0.0
    z: -1.6959507465362549
---
header: 
  seq: 67413
  stamp: 
    secs: 0
    nsecs:         0
  frame_id: "world"
twist: 
  linear: 
    x: 0.0
    y: 0.0
    z: 1.0
  angular: 
    x: 0.0
    y: 0.0
    z: -1.693556547164917
---
header: 
  seq: 67810
  stamp: 
    secs: 0
    nsecs:         0
  frame_id: "world"
twist: 
  linear: 
    x: 0.0
    y: 0.0
    z: 1.0
  angular: 
    x: 0.0
    y: 0.0
    z: -1.6794745922088623
---
header: 
  seq: 68234
  stamp: 
    secs: 0
    nsecs:         0
  frame_id: "world"
twist: 
  linear: 
    x: 0.0
    y: 0.0
    z: 1.0
  angular: 
    x: 0.0
    y: 0.0
    z: -1.6550254821777344
---
header: 
  seq: 68644
  stamp: 
    secs: 0
    nsecs:         0
  frame_id: "world"
twist: 
  linear: 
    x: 0.0
    y: 0.0
    z: 1.0
  angular: 
    x: 0.0
    y: 0.0
    z: -2.199263334274292
---
header: 
  seq: 69066
  stamp: 
    secs: 0
    nsecs:         0
  frame_id: "world"
twist: 
  linear: 
    x: 0.0
    y: 0.0
    z: 0.0
  angular: 
    x: 0.0
    y: 0.0
    z: 1.9016118049621582
---
header: 
  seq: 69341
  stamp: 
    secs: 0
    nsecs:         0
  frame_id: "world"
twist: 
  linear: 
    x: -1.1842578779844162
    y: 0.6480997274312745
    z: 0.0
  angular: 
    x: 0.0
    y: 0.0
    z: 2.6408536434173584
---
header: 
  seq: 69555
  stamp: 
    secs: 0
    nsecs:         0
  frame_id: "world"
twist: 
  linear: 
    x: -1.0174712218587654
    y: 0.8408026318435383
    z: 0.0
  angular: 
    x: 0.0
    y: 0.0
    z: 2.4509809017181396
---
header: 
  seq: 69796
  stamp: 
    secs: 0
    nsecs:         0
  frame_id: "world"
twist: 
  linear: 
    x: 0.0
    y: 0.0
    z: 1.0
  angular: 
    x: 0.0
    y: 0.0
    z: -3.453339081299531
---
header: 
  seq: 70173
  stamp: 
    secs: 0
    nsecs:         0
  frame_id: "world"
twist: 
  linear: 
    x: -1.2317123434055746
    y: 0.043429386418878294
    z: 0.0
  angular: 
    x: 0.0
    y: 0.0
    z: 3.1063477993011475
---
header: 
  seq: 70390
  stamp: 
    secs: 0
    nsecs:         0
  frame_id: "world"
twist: 
  linear: 
    x: -1.3371074235860774
    y: 0.15385042382160008
    z: 0.0
  angular: 
    x: 0.0
    y: 0.0
    z: 3.027034282684326
---
header: 
  seq: 70654
  stamp: 
    secs: 0
    nsecs:         0
  frame_id: "world"
twist: 
  linear: 
    x: 0.0
    y: 0.0
    z: 1.0
  angular: 
    x: 0.0
    y: 0.0
    z: -1.4454634189605713
---
header: 
  seq: 71086
  stamp: 
    secs: 0
    nsecs:         0
  frame_id: "world"
twist: 
  linear: 
    x: 0.0
    y: 0.0
    z: 1.0
  angular: 
    x: 0.0
    y: 0.0
    z: -1.4481909275054932
---
header: 
  seq: 71344
  stamp: 
    secs: 0
    nsecs:         0
  frame_id: "world"
twist: 
  linear: 
    x: -0.635103958294917
    y: -1.1655992522188359
    z: 0.0
  angular: 
    x: 0.0
    y: 0.0
    z: -2.069694995880127
---
header: 
  seq: 71558
  stamp: 
    secs: 0
    nsecs:         0
  frame_id: "world"
twist: 
  linear: 
    x: -0.6362094353513124
    y: -1.145065379384538
    z: 0.0
  angular: 
    x: 0.0
    y: 0.0
    z: -2.0779361724853516
---
header: 
  seq: 71775
  stamp: 
    secs: 0
    nsecs:         0
  frame_id: "world"
twist: 
  linear: 
    x: 0.02884638679462928
    y: -1.3102591860705004
    z: 0.0
  angular: 
    x: 0.0
    y: 0.0
    z: -1.5487841367721558
---
header: 
  seq: 71994
  stamp: 
    secs: 0
    nsecs:         0
  frame_id: "world"
twist: 
  linear: 
    x: 0.009289902790437484
    y: -0.4405571846094567
    z: 0.0
  angular: 
    x: 0.0
    y: 0.0
    z: -1.5497127771377563
---
header: 
  seq: 72352
  stamp: 
    secs: 0
    nsecs:         0
  frame_id: "world"
twist: 
  linear: 
    x: 0.0
    y: 0.0
    z: 1.0
  angular: 
    x: 0.0
    y: 0.0
    z: 0.8663009252143475
---
header: 
  seq: 72694
  stamp: 
    secs: 0
    nsecs:         0
  frame_id: "world"
twist: 
  linear: 
    x: 0.0
    y: 0.0
    z: 0.0
  angular: 
    x: 0.0
    y: 0.0
    z: 1.619206428527832
---
header: 
  seq: 73118
  stamp: 
    secs: 0
    nsecs:         0
  frame_id: "world"
twist: 
  linear: 
    x: 0.0
    y: 0.0
    z: 0.0
  angular: 
    x: 0.0
    y: 0.0
    z: -0.4982151687145233
---
header: 
  seq: 73545
  stamp: 
    secs: 0
    nsecs:         0
  frame_id: "world"
twist: 
  linear: 
    x: 0.0
    y: 0.0
    z: 1.0
  angular: 
    x: 0.0
    y: 0.0
    z: -2.832321076513208
---
header: 
  seq: 73830
  stamp: 
    secs: 0
    nsecs:         0
  frame_id: "world"
twist: 
  linear: 
    x: 0.08823459305262865
    y: 0.4011647279289166
    z: 0.0
  angular: 
    x: 0.0
    y: 0.0
    z: 1.354297399520874
---
header: 
  seq: 74141
  stamp: 
    secs: 0
    nsecs:         0
  frame_id: "world"
twist: 
  linear: 
    x: 0.0
    y: 0.0
    z: 0.0
  angular: 
    x: 0.0
    y: 0.0
    z: -2.3703973293304443
---
header: 
  seq: 74523
  stamp: 
    secs: 0
    nsecs:         0
  frame_id: "world"
twist: 
  linear: 
    x: 0.0
    y: 0.0
    z: 0.0
  angular: 
    x: 0.0
    y: 0.0
    z: 2.0813448429107666
---
header: 
  seq: 74930
  stamp: 
    secs: 0
    nsecs:         0
  frame_id: "world"
twist: 
  linear: 
    x: 0.0
    y: 0.0
    z: 1.0
  angular: 
    x: 0.0
    y: 0.0
    z: 1.582281352512835
---
header: 
  seq: 75356
  stamp: 
    secs: 0
    nsecs:         0
  frame_id: "world"
twist: 
  linear: 
    x: 0.0
    y: 0.0
    z: 1.0
  angular: 
    x: 0.0
    y: 0.0
    z: 1.4899092351814072
---
header: 
  seq: 75769
  stamp: 
    secs: 0
    nsecs:         0
  frame_id: "world"
twist: 
  linear: 
    x: 0.006712620692569233
    y: -0.46362467784502315
    z: 0.0
  angular: 
    x: 0.0
    y: 0.0
    z: -1.556318759918213
---
header: 
  seq: 76095
  stamp: 
    secs: 0
    nsecs:         0
  frame_id: "world"
twist: 
  linear: 
    x: 0.0
    y: 0.0
    z: 1.0
  angular: 
    x: 0.0
    y: 0.0
    z: 1.0247477552808697
---
header: 
  seq: 76396
  stamp: 
    secs: 0
    nsecs:         0
  frame_id: "world"
twist: 
  linear: 
    x: 0.0
    y: 0.0
    z: 1.0
  angular: 
    x: 0.0
    y: 0.0
    z: -4.3240387724474125
---
header: 
  seq: 76756
  stamp: 
    secs: 0
    nsecs:         0
  frame_id: "world"
twist: 
  linear: 
    x: 0.14880889745176337
    y: -0.43029343545787424
    z: 0.0
  angular: 
    x: 0.0
    y: 0.0
    z: -1.237840175628662
---
header: 
  seq: 77033
  stamp: 
    secs: 0
    nsecs:         0
  frame_id: "world"
twist: 
  linear: 
    x: 0.0024081410851757887
    y: 0.4150114658537082
    z: 0.0
  angular: 
    x: 0.0
    y: 0.0
    z: 1.5649940967559814
---
header: 
  seq: 77447
  stamp: 
    secs: 0
    nsecs:         0
  frame_id: "world"
twist: 
  linear: 
    x: 0.0
    y: 0.0
    z: 1.0
  angular: 
    x: 0.0
    y: 0.0
    z: -4.756829190684049
---
header: 
  seq: 77807
  stamp: 
    secs: 0
    nsecs:         0
  frame_id: "world"
twist: 
  linear: 
    x: -0.030214624626109205
    y: -0.4289542144839722
    z: 0.0
  angular: 
    x: 0.0
    y: 0.0
    z: -1.641118049621582
---
header: 
  seq: 78090
  stamp: 
    secs: 0
    nsecs:         0
  frame_id: "world"
twist: 
  linear: 
    x: -0.10570686355058648
    y: 0.4175778444695128
    z: 0.0
  angular: 
    x: 0.0
    y: 0.0
    z: 1.8187305927276611
---
header: 
  seq: 78479
  stamp: 
    secs: 0
    nsecs:         0
  frame_id: "world"
twist: 
  linear: 
    x: 0.0
    y: 0.0
    z: 1.0
  angular: 
    x: 0.0
    y: 0.0
    z: 1.0033581631923099
---
header: 
  seq: 78872
  stamp: 
    secs: 0
    nsecs:         0
  frame_id: "world"
twist: 
  linear: 
    x: -0.31266051114721644
    y: -0.3177551861888672
    z: 0.0
  angular: 
    x: 0.0
    y: 0.0
    z: -2.3481132984161377
---
header: 
  seq: 79167
  stamp: 
    secs: 0
    nsecs:         0
  frame_id: "world"
twist: 
  linear: 
    x: 0.0
    y: 0.0
    z: 1.0
  angular: 
    x: 0.0
    y: 0.0
    z: -5.24659179290235
---
header: 
  seq: 79511
  stamp: 
    secs: 0
    nsecs:         0
  frame_id: "world"
twist: 
  linear: 
    x: 0.0
    y: 0.0
    z: 0.0
  angular: 
    x: 0.0
    y: 0.0
    z: -1.6844854354858398
---
header: 
  seq: 79836
  stamp: 
    secs: 0
    nsecs:         0
  frame_id: "world"
twist: 
  linear: 
    x: 0.183748690677947
    y: -0.35181347445836647
    z: 0.0
  angular: 
    x: 0.0
    y: 0.0
    z: -1.0894761085510254
---
header: 
  seq: 80114
  stamp: 
    secs: 0
    nsecs:         0
  frame_id: "world"
twist: 
  linear: 
    x: 0.0
    y: 0.0
    z: 1.0
  angular: 
    x: 0.0
    y: 0.0
    z: -5.114374003159032
---
header: 
  seq: 80473
  stamp: 
    secs: 0
    nsecs:         0
  frame_id: "world"
twist: 
  linear: 
    x: -0.272917731043302
    y: -0.3288461057357249
    z: 0.0
  angular: 
    x: 0.0
    y: 0.0
    z: -2.2635200023651123
---
header: 
  seq: 80763
  stamp: 
    secs: 0
    nsecs:         0
  frame_id: "world"
twist: 
  linear: 
    x: 0.12075389020731585
    y: 0.36910087791287916
    z: 0.0
  angular: 
    x: 0.0
    y: 0.0
    z: 1.254615068435669
---
header: 
  seq: 81097
  stamp: 
    secs: 0
    nsecs:         0
  frame_id: "world"
twist: 
  linear: 
    x: -0.0737200594183271
    y: -0.39444566792036895
    z: 0.0
  angular: 
    x: 0.0
    y: 0.0
    z: -1.7555601596832275
---
header: 
  seq: 81379
  stamp: 
    secs: 0
    nsecs:         0
  frame_id: "world"
twist: 
  linear: 
    x: 0.0
    y: 0.0
    z: 1.0
  angular: 
    x: 0.0
    y: 0.0
    z: -5.2741101186564485
---
header: 
  seq: 81732
  stamp: 
    secs: 0
    nsecs:         0
  frame_id: "world"
twist: 
  linear: 
    x: -0.23916598659150642
    y: -0.3134972611641969
    z: 0.0
  angular: 
    x: 0.0
    y: 0.0
    z: -2.2225003242492676
---
header: 
  seq: 82000
  stamp: 
    secs: 0
    nsecs:         0
  frame_id: "world"
twist: 
  linear: 
    x: 0.0
    y: 0.0
    z: 1.0
  angular: 
    x: 0.0
    y: 0.0
    z: 0.6261841559033329
---
header: 
  seq: 82385
  stamp: 
    secs: 0
    nsecs:         0
  frame_id: "world"
twist: 
  linear: 
    x: -0.41146770892737394
    y: 0.1556233340557686
    z: 0.0
  angular: 
    x: 0.0
    y: 0.0
    z: 2.780006170272827
---
header: 
  seq: 82634
  stamp: 
    secs: 0
    nsecs:         0
  frame_id: "world"
twist: 
  linear: 
    x: 0.40777568441958806
    y: 0.13283266581471415
    z: 0.0
  angular: 
    x: 0.0
    y: 0.0
    z: 0.3149094581604004
---
header: 
  seq: 83009
  stamp: 
    secs: 0
    nsecs:         0
  frame_id: "world"
twist: 
  linear: 
    x: 0.0
    y: 0.0
    z: 1.0
  angular: 
    x: 0.0
    y: 0.0
    z: -2.429816961288452
---
header: 
  seq: 83433
  stamp: 
    secs: 0
    nsecs:         0
  frame_id: "world"
twist: 
  linear: 
    x: 0.0
    y: 0.0
    z: 1.0
  angular: 
    x: 0.0
    y: 0.0
    z: 3.469503945776791
---
header: 
  seq: 83865
  stamp: 
    secs: 0
    nsecs:         0
  frame_id: "world"
twist: 
  linear: 
    x: 0.0
    y: 0.0
    z: 1.0
  angular: 
    x: 0.0
    y: 0.0
    z: 0.5164531845814376
---
header: 
  seq: 84157
  stamp: 
    secs: 0
    nsecs:         0
  frame_id: "world"
twist: 
  linear: 
    x: -0.15593209983629203
    y: -0.3490020254609071
    z: 0.0
  angular: 
    x: 0.0
    y: 0.0
    z: -1.990980863571167
---
header: 
  seq: 84485
  stamp: 
    secs: 0
    nsecs:         0
  frame_id: "world"
twist: 
  linear: 
    x: 0.0
    y: 0.0
    z: 1.0
  angular: 
    x: 0.0
    y: 0.0
    z: 0.7998829272567468
---
header: 
  seq: 84799
  stamp: 
    secs: 0
    nsecs:         0
  frame_id: "world"
twist: 
  linear: 
    x: 0.0
    y: 0.0
    z: 1.0
  angular: 
    x: 0.0
    y: 0.0
    z: 4.183119255352155
---
header: 
  seq: 85121
  stamp: 
    secs: 0
    nsecs:         0
  frame_id: "world"
twist: 
  linear: 
    x: 0.0
    y: 0.0
    z: 1.0
  angular: 
    x: 0.0
    y: 0.0
    z: 0.9189009345655569
---
header: 
  seq: 85529
  stamp: 
    secs: 0
    nsecs:         0
  frame_id: "world"
twist: 
  linear: 
    x: 0.0
    y: 0.0
    z: 1.0
  angular: 
    x: 0.0
    y: 0.0
    z: 1.167601227760315
---
header: 
  seq: 85889
  stamp: 
    secs: 0
    nsecs:         0
  frame_id: "world"
twist: 
  linear: 
    x: 0.0
    y: 0.0
    z: 0.0
  angular: 
    x: 0.0
    y: 0.0
    z: -2.0840656757354736
---
header: 
  seq: 86175
  stamp: 
    secs: 0
    nsecs:         0
  frame_id: "world"
twist: 
  linear: 
    x: 0.0
    y: 0.0
    z: 0.0
  angular: 
    x: 0.0
    y: 0.0
    z: -2.782287120819092
---
header: 
  seq: 86507
  stamp: 
    secs: 0
    nsecs:         0
  frame_id: "world"
twist: 
  linear: 
    x: 0.0
    y: 0.0
    z: 0.0
  angular: 
    x: 0.0
    y: 0.0
    z: -1.808316946029663
---
header: 
  seq: 86879
  stamp: 
    secs: 0
    nsecs:         0
  frame_id: "world"
twist: 
  linear: 
    x: -1.2747504603125699
    y: -0.3825519099293654
    z: 0.0
  angular: 
    x: 0.0
    y: 0.0
    z: -2.8500444889068604
---
header: 
  seq: 87157
  stamp: 
    secs: 0
    nsecs:         0
  frame_id: "world"
twist: 
  linear: 
    x: 0.7350443326074328
    y: -1.1140515020851014
    z: 0.0
  angular: 
    x: 0.0
    y: 0.0
    z: -0.9875669479370117
---
header: 
  seq: 87552
  stamp: 
    secs: 0
    nsecs:         0
  frame_id: "world"
twist: 
  linear: 
    x: nan
    y: nan
    z: 1.0
  angular: 
    x: 0.0
    y: 0.0
    z: 2.9146556953789053
---
header: 
  seq: 87821
  stamp: 
    secs: 0
    nsecs:         0
  frame_id: "world"
twist: 
  linear: 
    x: 0.7280545029107988
    y: 1.0197802450428743
    z: 0.0
  angular: 
    x: 0.0
    y: 0.0
    z: 0.9507806301116943
---
header: 
  seq: 88037
  stamp: 
    secs: 0
    nsecs:         0
  frame_id: "world"
twist: 
  linear: 
    x: 0.0
    y: 0.0
    z: 0.0
  angular: 
    x: 0.0
    y: 0.0
    z: -1.1587979793548584
---
header: 
  seq: 88277
  stamp: 
    secs: 0
    nsecs:         0
  frame_id: "world"
twist: 
  linear: 
    x: -0.786047275874769
    y: -1.08975207058095
    z: 0.0
  angular: 
    x: 0.0
    y: 0.0
    z: -2.1956803798675537
---
header: 
  seq: 88489
  stamp: 
    secs: 0
    nsecs:         0
  frame_id: "world"
twist: 
  linear: 
    x: -0.5460017848105544
    y: -1.2085367286706075
    z: 0.0
  angular: 
    x: 0.0
    y: 0.0
    z: -1.9951355457305908
---
header: 
  seq: 88703
  stamp: 
    secs: 0
    nsecs:         0
  frame_id: "world"
twist: 
  linear: 
    x: -0.7801754126064574
    y: -1.095613016725333
    z: 0.0
  angular: 
    x: 0.0
    y: 0.0
    z: -2.1895906925201416
---
header: 
  seq: 88956
  stamp: 
    secs: 0
    nsecs:         0
  frame_id: "world"
twist: 
  linear: 
    x: 1.3114072957492815
    y: 0.07310517918926167
    z: 0.0
  angular: 
    x: 0.0
    y: 0.0
    z: 0.05568801611661911
---
header: 
  seq: 89168
  stamp: 
    secs: 0
    nsecs:         0
  frame_id: "world"
twist: 
  linear: 
    x: 0.6536144244731106
    y: 0.04572929118180576
    z: 0.0
  angular: 
    x: 0.0
    y: 0.0
    z: 0.06984995305538177
---
header: 
  seq: 89457
  stamp: 
    secs: 0
    nsecs:         0
  frame_id: "world"
twist: 
  linear: 
    x: -0.8061646243225766
    y: -1.0790890496762777
    z: 0.0
  angular: 
    x: 0.0
    y: 0.0
    z: -2.2124249935150146
---
header: 
  seq: 89793
  stamp: 
    secs: 0
    nsecs:         0
  frame_id: "world"
twist: 
  linear: 
    x: 0.14579356464418697
    y: 1.3421044263061117
    z: 0.0
  angular: 
    x: 0.0
    y: 0.0
    z: 1.4625900983810425
---
header: 
  seq: 90013
  stamp: 
    secs: 0
    nsecs:         0
  frame_id: "world"
twist: 
  linear: 
    x: -1.020024050926355
    y: -0.8824314821432535
    z: 0.0
  angular: 
    x: 0.0
    y: 0.0
    z: -2.428392171859741
---
header: 
  seq: 90308
  stamp: 
    secs: 0
    nsecs:         0
  frame_id: "world"
twist: 
  linear: 
    x: -0.6920941304418672
    y: -1.159096957718847
    z: 0.0
  angular: 
    x: 0.0
    y: 0.0
    z: -2.109079122543335
---
header: 
  seq: 90543
  stamp: 
    secs: 0
    nsecs:         0
  frame_id: "world"
twist: 
  linear: 
    x: -0.4289354635552408
    y: -0.44817541883531326
    z: 0.0
  angular: 
    x: 0.0
    y: 0.0
    z: -2.3342623710632324
---
header: 
  seq: 90805
  stamp: 
    secs: 0
    nsecs:         0
  frame_id: "world"
twist: 
  linear: 
    x: -0.3416296237992381
    y: 0.40054185476897225
    z: 0.0
  angular: 
    x: 0.0
    y: 0.0
    z: 2.276982307434082
---
header: 
  seq: 91148
  stamp: 
    secs: 0
    nsecs:         0
  frame_id: "world"
twist: 
  linear: 
    x: -0.22684094889257897
    y: -0.3367012843049975
    z: 0.0
  angular: 
    x: 0.0
    y: 0.0
    z: -2.163663148880005
---
header: 
  seq: 91423
  stamp: 
    secs: 0
    nsecs:         0
  frame_id: "world"
twist: 
  linear: 
    x: 1.342522270168771
    y: 0.14189395125713877
    z: 0.0
  angular: 
    x: 0.0
    y: 0.0
    z: 0.10530120134353638
---
header: 
  seq: 91639
  stamp: 
    secs: 0
    nsecs:         0
  frame_id: "world"
twist: 
  linear: 
    x: 1.332389613161655
    y: 0.12095526406088383
    z: 0.0
  angular: 
    x: 0.0
    y: 0.0
    z: 0.090532585978508
---
header: 
  seq: 91858
  stamp: 
    secs: 0
    nsecs:         0
  frame_id: "world"
twist: 
  linear: 
    x: 0.0
    y: 0.0
    z: 0.0
  angular: 
    x: 0.0
    y: 0.0
    z: -2.1675446033477783
---
header: 
  seq: 92138
  stamp: 
    secs: 0
    nsecs:         0
  frame_id: "world"
twist: 
  linear: 
    x: -0.6904978951460085
    y: -1.157590824364663
    z: 0.0
  angular: 
    x: 0.0
    y: 0.0
    z: -2.108635187149048
---
header: 
  seq: 92351
  stamp: 
    secs: 0
    nsecs:         0
  frame_id: "world"
twist: 
  linear: 
    x: -0.6693599208850364
    y: -1.1130667172044793
    z: 0.0
  angular: 
    x: 0.0
    y: 0.0
    z: -2.1122190952301025
---
header: 
  seq: 92596
  stamp: 
    secs: 0
    nsecs:         0
  frame_id: "world"
twist: 
  linear: 
    x: 1.116638783004765
    y: -0.757554274238083
    z: 0.0
  angular: 
    x: 0.0
    y: 0.0
    z: -0.5960979461669922
---
header: 
  seq: 92808
  stamp: 
    secs: 0
    nsecs:         0
  frame_id: "world"
twist: 
  linear: 
    x: 1.1240609302589906
    y: -0.7474637310009143
    z: 0.0
  angular: 
    x: 0.0
    y: 0.0
    z: -0.5868251919746399
---
header: 
  seq: 93072
  stamp: 
    secs: 0
    nsecs:         0
  frame_id: "world"
twist: 
  linear: 
    x: -1.3310402866228024
    y: -0.22155478393265318
    z: 0.0
  angular: 
    x: 0.0
    y: 0.0
    z: -2.9766523838043213
---
header: 
  seq: 93284
  stamp: 
    secs: 0
    nsecs:         0
  frame_id: "world"
twist: 
  linear: 
    x: -1.318845500974288
    y: -0.2787817975635518
    z: 0.0
  angular: 
    x: 0.0
    y: 0.0
    z: -2.9332759380340576
---
header: 
  seq: 93498
  stamp: 
    secs: 0
    nsecs:         0
  frame_id: "world"
twist: 
  linear: 
    x: -1.3220146847716674
    y: -0.27269206005094987
    z: 0.0
  angular: 
    x: 0.0
    y: 0.0
    z: -2.9381754398345947
---
header: 
  seq: 93782
  stamp: 
    secs: 0
    nsecs:         0
  frame_id: "world"
twist: 
  linear: 
    x: 1.3427241986738163
    y: 0.13827455183250276
    z: 0.0
  angular: 
    x: 0.0
    y: 0.0
    z: 0.10261878371238708
---
header: 
  seq: 93996
  stamp: 
    secs: 0
    nsecs:         0
  frame_id: "world"
twist: 
  linear: 
    x: 1.341988759065145
    y: 0.14533583127153693
    z: 0.0
  angular: 
    x: 0.0
    y: 0.0
    z: 0.1078784167766571
---
header: 
  seq: 94251
  stamp: 
    secs: 0
    nsecs:         0
  frame_id: "world"
twist: 
  linear: 
    x: -0.660419511108459
    y: 0.9731507578290982
    z: 0.0
  angular: 
    x: 0.0
    y: 0.0
    z: 2.1670427322387695
---
header: 
  seq: 94462
  stamp: 
    secs: 0
    nsecs:         0
  frame_id: "world"
twist: 
  linear: 
    x: -0.6214780163317825
    y: 0.9870983671639983
    z: 0.0
  angular: 
    x: 0.0
    y: 0.0
    z: 2.132697343826294
---
header: 
  seq: 94725
  stamp: 
    secs: 0
    nsecs:         0
  frame_id: "world"
twist: 
  linear: 
    x: 1.3144169217715274
    y: 0.28652571011448924
    z: 0.0
  angular: 
    x: 0.0
    y: 0.0
    z: 0.2146294116973877
---
header: 
  seq: 94937
  stamp: 
    secs: 0
    nsecs:         0
  frame_id: "world"
twist: 
  linear: 
    x: 1.3015045940002576
    y: 0.3585888056834808
    z: 0.0
  angular: 
    x: 0.0
    y: 0.0
    z: 0.26884838938713074
---
header: 
  seq: 95148
  stamp: 
    secs: 0
    nsecs:         0
  frame_id: "world"
twist: 
  linear: 
    x: 1.3004400878764901
    y: 0.3607617882827625
    z: 0.0
  angular: 
    x: 0.0
    y: 0.0
    z: 0.27061015367507935
---
header: 
  seq: 95438
  stamp: 
    secs: 0
    nsecs:         0
  frame_id: "world"
twist: 
  linear: 
    x: -1.3260703386723498
    y: -0.2518708008933342
    z: 0.0
  angular: 
    x: 0.0
    y: 0.0
    z: -2.953890800476074
---
header: 
  seq: 95652
  stamp: 
    secs: 0
    nsecs:         0
  frame_id: "world"
twist: 
  linear: 
    x: -1.3249481483137964
    y: -0.2586077975246841
    z: 0.0
  angular: 
    x: 0.0
    y: 0.0
    z: -2.9488327503204346
---
header: 
  seq: 95927
  stamp: 
    secs: 0
    nsecs:         0
  frame_id: "world"
twist: 
  linear: 
    x: 0.5751408177584106
    y: 0.6700152222877422
    z: 0.0
  angular: 
    x: 0.0
    y: 0.0
    z: 0.861445963382721
---
header: 
  seq: 96142
  stamp: 
    secs: 0
    nsecs:         0
  frame_id: "world"
twist: 
  linear: 
    x: 0.6013389874180143
    y: 0.6909649711726012
    z: 0.0
  angular: 
    x: 0.0
    y: 0.0
    z: 0.8546409010887146
---
header: 
  seq: 96382
  stamp: 
    secs: 0
    nsecs:         0
  frame_id: "world"
twist: 
  linear: 
    x: -0.4406879660197891
    y: 0.6276300838969531
    z: 0.0
  angular: 
    x: 0.0
    y: 0.0
    z: 2.1829612255096436
---
header: 
  seq: 96597
  stamp: 
    secs: 0
    nsecs:         0
  frame_id: "world"
twist: 
  linear: 
    x: -0.6684729397774054
    y: 0.5146965614845352
    z: 0.0
  angular: 
    x: 0.0
    y: 0.0
    z: 2.4854397773742676
---
header: 
  seq: 96809
  stamp: 
    secs: 0
    nsecs:         0
  frame_id: "world"
twist: 
  linear: 
    x: -0.6752297218526617
    y: 0.5066272994669689
    z: 0.0
  angular: 
    x: 0.0
    y: 0.0
    z: 2.497897148132324
---
header: 
  seq: 97081
  stamp: 
    secs: 0
    nsecs:         0
  frame_id: "world"
twist: 
  linear: 
    x: 1.3418308759060298
    y: -0.08593908876783521
    z: 0.0
  angular: 
    x: 0.0
    y: 0.0
    z: -0.06395871192216873
---
header: 
  seq: 97293
  stamp: 
    secs: 0
    nsecs:         0
  frame_id: "world"
twist: 
  linear: 
    x: 1.3485146471418514
    y: -0.06331069472615788
    z: 0.0
  angular: 
    x: 0.0
    y: 0.0
    z: -0.046914007514715195
---
header: 
  seq: 97572
  stamp: 
    secs: 0
    nsecs:         0
  frame_id: "world"
twist: 
  linear: 
    x: -1.150094865265649
    y: -0.5803035030968053
    z: 0.0
  angular: 
    x: 0.0
    y: 0.0
    z: -2.674295663833618
---
header: 
  seq: 97785
  stamp: 
    secs: 0
    nsecs:         0
  frame_id: "world"
twist: 
  linear: 
    x: -1.2373835001059812
    y: -0.35601159474608146
    z: 0.0
  angular: 
    x: 0.0
    y: 0.0
    z: -2.861445903778076
---
header: 
  seq: 98019
  stamp: 
    secs: 0
    nsecs:         0
  frame_id: "world"
twist: 
  linear: 
    x: 0.0
    y: 0.0
    z: 0.0
  angular: 
    x: 0.0
    y: 0.0
    z: 0.45069992542266846
---
header: 
  seq: 98279
  stamp: 
    secs: 0
    nsecs:         0
  frame_id: "world"
twist: 
  linear: 
    x: 1.201736858899923
    y: 0.6150840393281138
    z: 0.0
  angular: 
    x: 0.0
    y: 0.0
    z: 0.4730660915374756
---
header: 
  seq: 98491
  stamp: 
    secs: 0
