header: 
  seq: 1949
  stamp: 
    secs: 0
    nsecs:         0
  frame_id: "world"
twist: 
  linear: 
    x: 0.0
    y: 0.0
    z: 0.0
  angular: 
    x: 0.0
    y: 0.0
    z: 2.093806743621826
---
header: 
  seq: 2372
  stamp: 
    secs: 0
    nsecs:         0
  frame_id: "world"
twist: 
  linear: 
    x: 0.0
    y: 0.0
    z: 0.0
  angular: 
    x: 0.0
    y: 0.0
    z: 2.0933268070220947
---
header: 
  seq: 2798
  stamp: 
    secs: 0
    nsecs:         0
  frame_id: "world"
twist: 
  linear: 
    x: 0.0
    y: 0.0
    z: 0.0
  angular: 
    x: 0.0
    y: 0.0
    z: 2.0929720401763916
---
header: 
  seq: 3222
  stamp: 
    secs: 0
    nsecs:         0
  frame_id: "world"
twist: 
  linear: 
    x: 0.0
    y: 0.0
    z: 0.0
  angular: 
    x: 0.0
    y: 0.0
    z: 1.8630236387252808
---
header: 
  seq: 3563
  stamp: 
    secs: 0
    nsecs:         0
  frame_id: "world"
twist: 
  linear: 
    x: 0.48400118144278925
    y: 1.2466222482629734
    z: 0.0
  angular: 
    x: 0.0
    y: 0.0
    z: 1.2004600763320923
---
header: 
  seq: 3816
  stamp: 
    secs: 0
    nsecs:         0
  frame_id: "world"
twist: 
  linear: 
    x: 0.0
    y: 0.0
    z: 1.0
  angular: 
    x: 0.0
    y: 0.0
    z: 1.5057311365380066
---
header: 
  seq: 4157
  stamp: 
    secs: 0
    nsecs:         0
  frame_id: "world"
twist: 
  linear: 
    x: 0.0
    y: 0.0
    z: 1.0
  angular: 
    x: 0.0
    y: 0.0
    z: 2.008746971652479
---
header: 
  seq: 4527
  stamp: 
    secs: 0
    nsecs:         0
  frame_id: "world"
twist: 
  linear: 
    x: 0.0
    y: 0.0
    z: 1.0
  angular: 
    x: 0.0
    y: 0.0
    z: 2.0090368529539977
---
header: 
  seq: 4876
  stamp: 
    secs: 0
    nsecs:         0
  frame_id: "world"
twist: 
  linear: 
    x: 0.0
    y: 0.0
    z: 1.0
  angular: 
    x: 0.0
    y: 0.0
    z: 2.0107183171558893
---
header: 
  seq: 5298
  stamp: 
    secs: 0
    nsecs:         0
  frame_id: "world"
twist: 
  linear: 
    x: 0.0
    y: 0.0
    z: 1.0
  angular: 
    x: 0.0
    y: 0.0
    z: 2.015400344581167
---
header: 
  seq: 5725
  stamp: 
    secs: 0
    nsecs:         0
  frame_id: "world"
twist: 
  linear: 
    x: 0.0
    y: 0.0
    z: 1.0
  angular: 
    x: 0.0
    y: 0.0
    z: 2.0093373861097805
---
header: 
  seq: 6091
  stamp: 
    secs: 0
    nsecs:         0
  frame_id: "world"
twist: 
  linear: 
    x: 0.018052248031997824
    y: 0.37485135796878394
    z: 0.0
  angular: 
    x: 0.0
    y: 0.0
    z: 1.5226750373840332
---
header: 
  seq: 6512
  stamp: 
    secs: 0
    nsecs:         0
  frame_id: "world"
twist: 
  linear: 
    x: 0.0
    y: 0.0
    z: 1.0
  angular: 
    x: 0.0
    y: 0.0
    z: -2.548194533606499
---
header: 
  seq: 6844
  stamp: 
    secs: 0
    nsecs:         0
  frame_id: "world"
twist: 
  linear: 
    x: 0.0
    y: 0.0
    z: 1.0
  angular: 
    x: 0.0
    y: 0.0
    z: -0.6101032423627913
---
header: 
  seq: 7189
  stamp: 
    secs: 0
    nsecs:         0
  frame_id: "world"
twist: 
  linear: 
    x: 0.0
    y: 0.0
    z: 1.0
  angular: 
    x: 0.0
    y: 0.0
    z: 1.713850719589062
---
header: 
  seq: 7613
  stamp: 
    secs: 0
    nsecs:         0
  frame_id: "world"
twist: 
  linear: 
    x: 0.0
    y: 0.0
    z: 1.0
  angular: 
    x: 0.0
    y: 0.0
    z: -2.1364503580331995
---
header: 
  seq: 7988
  stamp: 
    secs: 0
    nsecs:         0
  frame_id: "world"
twist: 
  linear: 
    x: 0.0
    y: 0.0
    z: 1.0
  angular: 
    x: 0.0
    y: 0.0
    z: -1.065703930147318
---
header: 
  seq: 8413
  stamp: 
    secs: 0
    nsecs:         0
  frame_id: "world"
twist: 
  linear: 
    x: 0.0
    y: 0.0
    z: 0.0
  angular: 
    x: 0.0
    y: 0.0
    z: 2.1590354442596436
---
header: 
  seq: 8840
  stamp: 
    secs: 0
    nsecs:         0
  frame_id: "world"
twist: 
  linear: 
    x: 0.0
    y: 0.0
    z: 0.0
  angular: 
    x: 0.0
    y: 0.0
    z: 1.981307029724121
---
header: 
  seq: 9267
  stamp: 
    secs: 0
    nsecs:         0
  frame_id: "world"
twist: 
  linear: 
    x: 0.0
    y: 0.0
    z: 0.0
  angular: 
    x: 0.0
    y: 0.0
    z: 2.155399799346924
---
header: 
  seq: 9693
  stamp: 
    secs: 0
    nsecs:         0
  frame_id: "world"
twist: 
  linear: 
    x: 0.0
    y: 0.0
    z: 1.0
  angular: 
    x: 0.0
    y: 0.0
    z: 0.06796854883288532
---
header: 
  seq: 10123
  stamp: 
    secs: 0
    nsecs:         0
  frame_id: "world"
twist: 
  linear: 
    x: 0.0
    y: 0.0
    z: 0.0
  angular: 
    x: 0.0
    y: 0.0
    z: 1.9810194969177246
---
header: 
  seq: 10551
  stamp: 
    secs: 0
    nsecs:         0
  frame_id: "world"
twist: 
  linear: 
    x: 0.0
    y: 0.0
    z: 0.0
  angular: 
    x: 0.0
    y: 0.0
    z: 1.9808913469314575
---
header: 
  seq: 10977
  stamp: 
    secs: 0
    nsecs:         0
  frame_id: "world"
twist: 
  linear: 
    x: 0.0
    y: 0.0
    z: 0.0
  angular: 
    x: 0.0
    y: 0.0
    z: 1.978081226348877
---
header: 
  seq: 11402
  stamp: 
    secs: 0
    nsecs:         0
  frame_id: "world"
twist: 
  linear: 
    x: 0.0
    y: 0.0
    z: 0.0
  angular: 
    x: 0.0
    y: 0.0
    z: 1.9818366765975952
---
header: 
  seq: 11829
  stamp: 
    secs: 0
    nsecs:         0
  frame_id: "world"
twist: 
  linear: 
    x: 0.0
    y: 0.0
    z: 1.0
  angular: 
    x: 0.0
    y: 0.0
    z: 0.06801852329846508
---
header: 
  seq: 12259
  stamp: 
    secs: 0
    nsecs:         0
  frame_id: "world"
twist: 
  linear: 
    x: 0.0
    y: 0.0
    z: 0.0
  angular: 
    x: 0.0
    y: 0.0
    z: 2.1558547019958496
---
header: 
  seq: 12682
  stamp: 
    secs: 0
    nsecs:         0
  frame_id: "world"
twist: 
  linear: 
    x: 0.0
    y: 0.0
    z: 0.0
  angular: 
    x: 0.0
    y: 0.0
    z: 1.9792062044143677
---
header: 
  seq: 13111
  stamp: 
    secs: 0
    nsecs:         0
  frame_id: "world"
twist: 
  linear: 
    x: 0.0
    y: 0.0
    z: 0.0
  angular: 
    x: 0.0
    y: 0.0
    z: 1.9812091588974
---
header: 
  seq: 13537
  stamp: 
    secs: 0
    nsecs:         0
  frame_id: "world"
twist: 
  linear: 
    x: 0.0
    y: 0.0
    z: 0.0
  angular: 
    x: 0.0
    y: 0.0
    z: 1.9895069599151611
---
header: 
  seq: 13961
  stamp: 
    secs: 0
    nsecs:         0
  frame_id: "world"
twist: 
  linear: 
    x: 0.0
    y: 0.0
    z: 0.0
  angular: 
    x: 0.0
    y: 0.0
    z: 2.156268358230591
---
header: 
  seq: 14385
  stamp: 
    secs: 0
    nsecs:         0
  frame_id: "world"
twist: 
  linear: 
    x: 0.0
    y: 0.0
    z: 0.0
  angular: 
    x: 0.0
    y: 0.0
    z: 2.1567933559417725
---
header: 
  seq: 14809
  stamp: 
    secs: 0
    nsecs:         0
  frame_id: "world"
twist: 
  linear: 
    x: 0.0
    y: 0.0
    z: 1.0
  angular: 
    x: 0.0
    y: 0.0
    z: 0.06762268691852844
---
header: 
  seq: 15237
  stamp: 
    secs: 0
    nsecs:         0
  frame_id: "world"
twist: 
  linear: 
    x: 0.0
    y: 0.0
    z: 0.0
  angular: 
    x: 0.0
    y: 0.0
    z: 1.9828717708587646
---
header: 
  seq: 15660
  stamp: 
    secs: 0
    nsecs:         0
  frame_id: "world"
twist: 
  linear: 
    x: 0.0
    y: 0.0
    z: 0.0
  angular: 
    x: 0.0
    y: 0.0
    z: 2.1598732471466064
---
header: 
  seq: 16082
  stamp: 
    secs: 0
    nsecs:         0
  frame_id: "world"
twist: 
  linear: 
    x: 0.0
    y: 0.0
    z: 0.0
  angular: 
    x: 0.0
    y: 0.0
    z: 1.983786940574646
---
header: 
  seq: 16505
  stamp: 
    secs: 0
    nsecs:         0
  frame_id: "world"
twist: 
  linear: 
    x: 0.0
    y: 0.0
    z: 0.0
  angular: 
    x: 0.0
    y: 0.0
    z: 2.1601738929748535
---
header: 
  seq: 16927
  stamp: 
    secs: 0
    nsecs:         0
  frame_id: "world"
twist: 
  linear: 
    x: 0.0
    y: 0.0
    z: 0.0
  angular: 
    x: 0.0
    y: 0.0
    z: 1.9808176755905151
---
header: 
  seq: 17354
  stamp: 
    secs: 0
    nsecs:         0
  frame_id: "world"
twist: 
  linear: 
    x: 0.0
    y: 0.0
    z: 0.0
  angular: 
    x: 0.0
    y: 0.0
    z: 1.9546308517456055
---
header: 
  seq: 17780
  stamp: 
    secs: 0
    nsecs:         0
  frame_id: "world"
twist: 
  linear: 
    x: 0.0
    y: 0.0
    z: 0.0
  angular: 
    x: 0.0
    y: 0.0
    z: 1.9790968894958496
---
header: 
  seq: 18209
  stamp: 
    secs: 0
    nsecs:         0
  frame_id: "world"
twist: 
  linear: 
    x: 0.0
    y: 0.0
    z: 1.0
  angular: 
    x: 0.0
    y: 0.0
    z: 0.0665350132358013
---
header: 
  seq: 18571
  stamp: 
    secs: 0
    nsecs:         0
  frame_id: "world"
twist: 
  linear: 
    x: 0.0
    y: 0.0
    z: 1.0
  angular: 
    x: 0.0
    y: 0.0
    z: 2.157763170931412
---
header: 
  seq: 18968
  stamp: 
    secs: 0
    nsecs:         0
  frame_id: "world"
twist: 
  linear: 
    x: 0.0
    y: 0.0
    z: 1.0
  angular: 
    x: 0.0
    y: 0.0
    z: -1.9296757104310918
---
header: 
  seq: 19316
  stamp: 
    secs: 0
    nsecs:         0
  frame_id: "world"
twist: 
  linear: 
    x: 0.0
    y: 0.0
    z: 0.0
  angular: 
    x: 0.0
    y: 0.0
    z: 2.367642879486084
---
header: 
  seq: 19668
  stamp: 
    secs: 0
    nsecs:         0
  frame_id: "world"
twist: 
  linear: 
    x: 0.0
    y: 0.0
    z: 1.0
  angular: 
    x: 0.0
    y: 0.0
    z: 2.8245157161521743
---
header: 
  seq: 20089
  stamp: 
    secs: 0
    nsecs:         0
  frame_id: "world"
twist: 
  linear: 
    x: 0.0
    y: 0.0
    z: 1.0
  angular: 
    x: 0.0
    y: 0.0
    z: -0.9901009389823007
---
header: 
  seq: 20424
  stamp: 
    secs: 0
    nsecs:         0
  frame_id: "world"
twist: 
  linear: 
    x: 0.03263201930369477
    y: 0.4500877321679275
    z: 0.0
  angular: 
    x: 0.0
    y: 0.0
    z: 1.4984214305877686
---
header: 
  seq: 20752
  stamp: 
    secs: 0
    nsecs:         0
  frame_id: "world"
twist: 
  linear: 
    x: -0.36722025936750535
    y: -0.07848425418254541
    z: 0.0
  angular: 
    x: 0.0
    y: 0.0
    z: -2.931035280227661
---
header: 
  seq: 21107
  stamp: 
    secs: 0
    nsecs:         0
  frame_id: "world"
twist: 
  linear: 
    x: 0.17817643531594834
    y: -0.3313537591634969
    z: 0.0
  angular: 
    x: 0.0
    y: 0.0
    z: -1.077427864074707
---
header: 
  seq: 21461
  stamp: 
    secs: 0
    nsecs:         0
  frame_id: "world"
twist: 
  linear: 
    x: 0.0
    y: 0.0
    z: 1.0
  angular: 
    x: 0.0
    y: 0.0
    z: 2.5757834610703747
---
header: 
  seq: 21874
  stamp: 
    secs: 0
    nsecs:         0
  frame_id: "world"
twist: 
  linear: 
    x: 0.11167515324362443
    y: -0.39075037602210705
    z: 0.0
  angular: 
    x: 0.0
    y: 0.0
    z: -1.292420506477356
---
header: 
  seq: 22207
  stamp: 
    secs: 0
    nsecs:         0
  frame_id: "world"
twist: 
  linear: 
    x: -0.1491009485243336
    y: 0.4076249880794974
    z: 0.0
  angular: 
    x: 0.0
    y: 0.0
    z: 1.9214590787887573
---
header: 
  seq: 22613
  stamp: 
    secs: 0
    nsecs:         0
  frame_id: "world"
twist: 
  linear: 
    x: 0.0
    y: 0.0
    z: 1.0
  angular: 
    x: 0.0
    y: 0.0
    z: -2.1479497801434353
---
header: 
  seq: 22978
  stamp: 
    secs: 0
    nsecs:         0
  frame_id: "world"
twist: 
  linear: 
    x: 0.0
    y: 0.0
    z: 0.0
  angular: 
    x: 0.0
    y: 0.0
    z: 1.8260921239852905
---
header: 
  seq: 23330
  stamp: 
    secs: 0
    nsecs:         0
  frame_id: "world"
twist: 
  linear: 
    x: 0.0
    y: 0.0
    z: 1.0
  angular: 
    x: 0.0
    y: 0.0
    z: -3.1767468553914298
---
header: 
  seq: 23680
  stamp: 
    secs: 0
    nsecs:         0
  frame_id: "world"
twist: 
  linear: 
    x: 0.0
    y: 0.0
    z: 1.0
  angular: 
    x: 0.0
    y: 0.0
    z: -1.5639254863795213
---
header: 
  seq: 24027
  stamp: 
    secs: 0
    nsecs:         0
  frame_id: "world"
twist: 
  linear: 
    x: 0.0
    y: 0.0
    z: 1.0
  angular: 
    x: 0.0
    y: 0.0
    z: 0.6874071607234221
---
header: 
  seq: 24448
  stamp: 
    secs: 0
    nsecs:         0
  frame_id: "world"
twist: 
  linear: 
    x: 0.0
    y: 0.0
    z: 1.0
  angular: 
    x: 0.0
    y: 0.0
    z: 1.958165121820433
---
header: 
  seq: 24873
  stamp: 
    secs: 0
    nsecs:         0
  frame_id: "world"
twist: 
  linear: 
    x: 0.0
    y: 0.0
    z: 1.0
  angular: 
    x: 0.0
    y: 0.0
    z: -3.864742564109507
---
header: 
  seq: 25301
  stamp: 
    secs: 0
    nsecs:         0
  frame_id: "world"
twist: 
  linear: 
    x: 0.0
    y: 0.0
    z: 1.0
  angular: 
    x: 0.0
    y: 0.0
    z: -3.864700793648295
---
header: 
  seq: 25725
  stamp: 
    secs: 0
    nsecs:         0
  frame_id: "world"
twist: 
  linear: 
    x: 0.0
    y: 0.0
    z: 1.0
  angular: 
    x: 0.0
    y: 0.0
    z: -3.8647631687472495
---
header: 
  seq: 26147
  stamp: 
    secs: 0
    nsecs:         0
  frame_id: "world"
twist: 
  linear: 
    x: 0.0
    y: 0.0
    z: 1.0
  angular: 
    x: 0.0
    y: 0.0
    z: -3.8655628257619754
---
header: 
  seq: 26568
  stamp: 
    secs: 0
    nsecs:         0
  frame_id: "world"
twist: 
  linear: 
    x: 0.0
    y: 0.0
    z: 1.0
  angular: 
    x: 0.0
    y: 0.0
    z: -3.864979027679414
---
header: 
  seq: 26991
  stamp: 
    secs: 0
    nsecs:         0
  frame_id: "world"
twist: 
  linear: 
    x: 0.0
    y: 0.0
    z: 1.0
  angular: 
    x: 0.0
    y: 0.0
    z: -2.0674702455484915
---
header: 
  seq: 27314
  stamp: 
    secs: 0
    nsecs:         0
  frame_id: "world"
twist: 
  linear: 
    x: -0.06019248705300188
    y: -0.36902494551789655
    z: 0.0
  angular: 
    x: 0.0
    y: 0.0
    z: -1.7324846982955933
---
header: 
  seq: 27705
  stamp: 
    secs: 0
    nsecs:         0
  frame_id: "world"
twist: 
  linear: 
    x: 0.0
    y: 0.0
    z: 1.0
  angular: 
    x: 0.0
    y: 0.0
    z: -1.2929831359411745
---
header: 
  seq: 28127
  stamp: 
    secs: 0
    nsecs:         0
  frame_id: "world"
twist: 
  linear: 
    x: 0.0
    y: 0.0
    z: 1.0
  angular: 
    x: 0.0
    y: 0.0
    z: -1.292811457998911
---
header: 
  seq: 28553
  stamp: 
    secs: 0
    nsecs:         0
  frame_id: "world"
twist: 
  linear: 
    x: 0.0
    y: 0.0
    z: 1.0
  angular: 
    x: 0.0
    y: 0.0
    z: -1.2929066241033593
---
header: 
  seq: 28978
  stamp: 
    secs: 0
    nsecs:         0
  frame_id: "world"
twist: 
  linear: 
    x: 0.0
    y: 0.0
    z: 1.0
  angular: 
    x: 0.0
    y: 0.0
    z: -1.2932866063885537
---
header: 
  seq: 29402
  stamp: 
    secs: 0
    nsecs:         0
  frame_id: "world"
twist: 
  linear: 
    x: 0.0
    y: 0.0
    z: 1.0
  angular: 
    x: 0.0
    y: 0.0
    z: -1.2939252885592478
---
header: 
  seq: 29828
  stamp: 
    secs: 0
    nsecs:         0
  frame_id: "world"
twist: 
  linear: 
    x: 0.0
    y: 0.0
    z: 1.0
  angular: 
    x: 0.0
    y: 0.0
    z: -1.2937270661403493
---
header: 
  seq: 30253
  stamp: 
    secs: 0
    nsecs:         0
  frame_id: "world"
twist: 
  linear: 
    x: 0.0
    y: 0.0
    z: 1.0
  angular: 
    x: 0.0
    y: 0.0
    z: -1.2940046539247338
---
header: 
  seq: 30678
  stamp: 
    secs: 0
    nsecs:         0
  frame_id: "world"
twist: 
  linear: 
    x: 0.0
    y: 0.0
    z: 1.0
  angular: 
    x: 0.0
    y: 0.0
    z: -1.2939542077810444
---
header: 
  seq: 31102
  stamp: 
    secs: 0
    nsecs:         0
  frame_id: "world"
twist: 
  linear: 
    x: 0.0
    y: 0.0
    z: 1.0
  angular: 
    x: 0.0
    y: 0.0
    z: -1.2940864752993686
---
header: 
  seq: 31523
  stamp: 
    secs: 0
    nsecs:         0
  frame_id: "world"
twist: 
  linear: 
    x: 0.0
    y: 0.0
    z: 1.0
  angular: 
    x: 0.0
    y: 0.0
    z: -1.2944295015210339
---
header: 
  seq: 31952
  stamp: 
    secs: 0
    nsecs:         0
  frame_id: "world"
twist: 
  linear: 
    x: 0.0
    y: 0.0
    z: 1.0
  angular: 
    x: 0.0
    y: 0.0
    z: -1.2943656242580632
---
header: 
  seq: 32374
  stamp: 
    secs: 0
    nsecs:         0
  frame_id: "world"
twist: 
  linear: 
    x: 0.0
    y: 0.0
    z: 1.0
  angular: 
    x: 0.0
    y: 0.0
    z: -1.2944984969858486
---
header: 
  seq: 32796
  stamp: 
    secs: 0
    nsecs:         0
  frame_id: "world"
twist: 
  linear: 
    x: 0.0
    y: 0.0
    z: 1.0
  angular: 
    x: 0.0
    y: 0.0
    z: -1.294656133837564
---
header: 
  seq: 33222
  stamp: 
    secs: 0
    nsecs:         0
  frame_id: "world"
twist: 
  linear: 
    x: 0.0
    y: 0.0
    z: 1.0
  angular: 
    x: 0.0
    y: 0.0
    z: -1.2944066891370718
---
header: 
  seq: 33645
  stamp: 
    secs: 0
    nsecs:         0
  frame_id: "world"
twist: 
  linear: 
    x: 0.0
    y: 0.0
    z: 1.0
  angular: 
    x: 0.0
    y: 0.0
    z: -1.294764377352245
---
header: 
  seq: 34073
  stamp: 
    secs: 0
    nsecs:         0
  frame_id: "world"
twist: 
  linear: 
    x: 0.0
    y: 0.0
    z: 1.0
  angular: 
    x: 0.0
    y: 0.0
    z: -1.2944479432530995
---
header: 
  seq: 34492
  stamp: 
    secs: 0
    nsecs:         0
  frame_id: "world"
twist: 
  linear: 
    x: 0.0
    y: 0.0
    z: 1.0
  angular: 
    x: 0.0
    y: 0.0
    z: -1.2949303111207557
---
header: 
  seq: 34914
  stamp: 
    secs: 0
    nsecs:         0
  frame_id: "world"
twist: 
  linear: 
    x: 0.0
    y: 0.0
    z: 1.0
  angular: 
    x: 0.0
    y: 0.0
    z: -1.295090257576693
---
header: 
  seq: 35338
  stamp: 
    secs: 0
    nsecs:         0
  frame_id: "world"
twist: 
  linear: 
    x: 0.0
    y: 0.0
    z: 1.0
  angular: 
    x: 0.0
    y: 0.0
    z: -1.2951756679734865
---
header: 
  seq: 35760
  stamp: 
    secs: 0
    nsecs:         0
  frame_id: "world"
twist: 
  linear: 
    x: 0.0
    y: 0.0
    z: 1.0
  angular: 
    x: 0.0
    y: 0.0
    z: -1.2954462242963367
---
header: 
  seq: 36185
  stamp: 
    secs: 0
    nsecs:         0
  frame_id: "world"
twist: 
  linear: 
    x: 0.0
    y: 0.0
    z: 1.0
  angular: 
    x: 0.0
    y: 0.0
    z: -1.2950881949354494
---
header: 
  seq: 36614
  stamp: 
    secs: 0
    nsecs:         0
  frame_id: "world"
twist: 
  linear: 
    x: 0.0
    y: 0.0
    z: 1.0
  angular: 
    x: 0.0
    y: 0.0
    z: -1.2949866501799228
---
header: 
  seq: 37039
  stamp: 
    secs: 0
    nsecs:         0
  frame_id: "world"
twist: 
  linear: 
    x: 0.0
    y: 0.0
    z: 1.0
  angular: 
    x: 0.0
    y: 0.0
    z: -1.2947400205817519
---
header: 
  seq: 37467
  stamp: 
    secs: 0
    nsecs:         0
  frame_id: "world"
twist: 
  linear: 
    x: 0.0
    y: 0.0
    z: 1.0
  angular: 
    x: 0.0
    y: 0.0
    z: -1.294962402240388
---
header: 
  seq: 37895
  stamp: 
    secs: 0
    nsecs:         0
  frame_id: "world"
twist: 
  linear: 
    x: 0.0
    y: 0.0
    z: 1.0
  angular: 
    x: 0.0
    y: 0.0
    z: -1.2952563899562108
---
header: 
  seq: 38323
  stamp: 
    secs: 0
    nsecs:         0
  frame_id: "world"
twist: 
  linear: 
    x: 0.0
    y: 0.0
    z: 1.0
  angular: 
    x: 0.0
    y: 0.0
    z: -1.294773350804498
---
header: 
  seq: 38748
  stamp: 
    secs: 0
    nsecs:         0
  frame_id: "world"
twist: 
  linear: 
    x: 0.0
    y: 0.0
    z: 1.0
  angular: 
    x: 0.0
    y: 0.0
    z: -1.2951477798439552
---
header: 
  seq: 39175
  stamp: 
    secs: 0
    nsecs:         0
  frame_id: "world"
twist: 
  linear: 
    x: 0.0
    y: 0.0
    z: 1.0
  angular: 
    x: 0.0
    y: 0.0
    z: -1.2950859438380047
---
header: 
  seq: 39598
  stamp: 
    secs: 0
    nsecs:         0
  frame_id: "world"
twist: 
  linear: 
    x: 0.0
    y: 0.0
    z: 1.0
  angular: 
    x: 0.0
    y: 0.0
    z: -1.294916961557961
---
header: 
  seq: 40023
  stamp: 
    secs: 0
    nsecs:         0
  frame_id: "world"
twist: 
  linear: 
    x: 0.0
    y: 0.0
    z: 1.0
  angular: 
    x: 0.0
    y: 0.0
    z: -1.2950734165440516
---
header: 
  seq: 40451
  stamp: 
    secs: 0
    nsecs:         0
  frame_id: "world"
twist: 
  linear: 
    x: 0.0
    y: 0.0
    z: 1.0
  angular: 
    x: 0.0
    y: 0.0
    z: -1.2949551280201317
---
header: 
  seq: 40874
  stamp: 
    secs: 0
    nsecs:         0
  frame_id: "world"
twist: 
  linear: 
    x: 0.0
    y: 0.0
    z: 1.0
  angular: 
    x: 0.0
    y: 0.0
    z: -1.295049996803862
---
header: 
  seq: 41298
  stamp: 
    secs: 0
    nsecs:         0
  frame_id: "world"
twist: 
  linear: 
    x: 0.0
    y: 0.0
    z: 1.0
  angular: 
    x: 0.0
    y: 0.0
    z: -1.295045633154108
---
header: 
  seq: 41727
  stamp: 
    secs: 0
    nsecs:         0
  frame_id: "world"
twist: 
  linear: 
    x: 0.0
    y: 0.0
    z: 1.0
  angular: 
    x: 0.0
    y: 0.0
    z: -1.2950640657164068
---
header: 
  seq: 42154
  stamp: 
    secs: 0
    nsecs:         0
  frame_id: "world"
twist: 
  linear: 
    x: 0.0
    y: 0.0
    z: 1.0
  angular: 
    x: 0.0
    y: 0.0
    z: -1.295366305775603
---
header: 
  seq: 42582
  stamp: 
    secs: 0
    nsecs:         0
  frame_id: "world"
twist: 
  linear: 
    x: 0.0
    y: 0.0
    z: 1.0
  angular: 
    x: 0.0
    y: 0.0
    z: -1.2951266576788438
---
header: 
  seq: 43010
  stamp: 
    secs: 0
    nsecs:         0
  frame_id: "world"
twist: 
  linear: 
    x: 0.0
    y: 0.0
    z: 1.0
  angular: 
    x: 0.0
    y: 0.0
    z: -1.2953886346306531
---
header: 
  seq: 43435
  stamp: 
    secs: 0
    nsecs:         0
  frame_id: "world"
twist: 
  linear: 
    x: 0.0
    y: 0.0
    z: 1.0
  angular: 
    x: 0.0
    y: 0.0
    z: -1.295638689997251
---
header: 
  seq: 43860
  stamp: 
    secs: 0
    nsecs:         0
  frame_id: "world"
twist: 
  linear: 
    x: 0.0
    y: 0.0
    z: 1.0
  angular: 
    x: 0.0
    y: 0.0
    z: -1.2958671818780896
---
header: 
  seq: 44285
  stamp: 
    secs: 0
    nsecs:         0
  frame_id: "world"
twist: 
  linear: 
    x: 0.0
    y: 0.0
    z: 1.0
  angular: 
    x: 0.0
    y: 0.0
    z: -1.2962634933337183
---
header: 
  seq: 44711
  stamp: 
    secs: 0
    nsecs:         0
  frame_id: "world"
twist: 
  linear: 
    x: 0.0
    y: 0.0
    z: 1.0
  angular: 
    x: 0.0
    y: 0.0
    z: -1.2963301898063941
---
header: 
  seq: 45142
  stamp: 
    secs: 0
    nsecs:         0
  frame_id: "world"
twist: 
  linear: 
    x: 0.0
    y: 0.0
    z: 1.0
  angular: 
    x: 0.0
    y: 0.0
    z: -1.2941651911751226
---
header: 
  seq: 45569
  stamp: 
    secs: 0
    nsecs:         0
  frame_id: "world"
twist: 
  linear: 
    x: 0.0
    y: 0.0
    z: 1.0
  angular: 
    x: 0.0
    y: 0.0
    z: 0.4501658641555423
---
header: 
  seq: 45995
  stamp: 
    secs: 0
    nsecs:         0
  frame_id: "world"
twist: 
  linear: 
    x: 0.0
    y: 0.0
    z: 1.0
  angular: 
    x: 0.0
    y: 0.0
    z: -3.3564120181466435
---
header: 
  seq: 46353
  stamp: 
    secs: 0
    nsecs:         0
  frame_id: "world"
twist: 
  linear: 
    x: 0.0
    y: 0.0
    z: 1.0
  angular: 
    x: 0.0
    y: 0.0
    z: -1.0552943896693059
---
header: 
  seq: 46692
  stamp: 
    secs: 0
    nsecs:         0
  frame_id: "world"
twist: 
  linear: 
    x: 0.0
    y: 0.0
    z: 1.0
  angular: 
    x: 0.0
    y: 0.0
    z: 0.9544284425541215
---
header: 
  seq: 47094
  stamp: 
    secs: 0
    nsecs:         0
  frame_id: "world"
twist: 
  linear: 
    x: 0.0
    y: 0.0
    z: 1.0
  angular: 
    x: 0.0
    y: 0.0
    z: -2.9876622988111987
---
header: 
  seq: 47442
  stamp: 
    secs: 0
    nsecs:         0
  frame_id: "world"
twist: 
  linear: 
    x: 0.0
    y: 0.0
    z: 0.0
  angular: 
    x: 0.0
    y: 0.0
    z: 0.9652368426322937
---
header: 
  seq: 47792
  stamp: 
    secs: 0
    nsecs:         0
  frame_id: "world"
twist: 
  linear: 
    x: 0.0
    y: 0.0
    z: 1.0
  angular: 
    x: 0.0
    y: 0.0
    z: 0.6887005320284317
---
header: 
  seq: 48217
  stamp: 
    secs: 0
    nsecs:         0
  frame_id: "world"
twist: 
  linear: 
    x: 0.0
    y: 0.0
    z: 1.0
  angular: 
    x: 0.0
    y: 0.0
    z: -3.1315775314493126
---
header: 
  seq: 48580
  stamp: 
    secs: 0
    nsecs:         0
  frame_id: "world"
twist: 
  linear: 
    x: 0.31091269562179596
    y: 0.22495103530345553
    z: 0.0
  angular: 
    x: 0.0
    y: 0.0
    z: 0.626336395740509
---
header: 
  seq: 48918
  stamp: 
    secs: 0
    nsecs:         0
  frame_id: "world"
twist: 
  linear: 
    x: 0.0
    y: 0.0
    z: 1.0
  angular: 
    x: 0.0
    y: 0.0
    z: -4.968068353503514
---
header: 
  seq: 49307
  stamp: 
    secs: 0
    nsecs:         0
  frame_id: "world"
twist: 
  linear: 
    x: -0.39865596574560336
    y: -0.11429816344115418
    z: 0.0
  angular: 
    x: 0.0
    y: 0.0
    z: -2.8623738288879395
---
header: 
  seq: 49633
  stamp: 
    secs: 0
    nsecs:         0
  frame_id: "world"
twist: 
  linear: 
    x: 0.39976251694566795
    y: -0.03380305388473991
    z: 0.0
  angular: 
    x: 0.0
    y: 0.0
    z: -0.0843571200966835
---
header: 
  seq: 50048
  stamp: 
    secs: 0
    nsecs:         0
  frame_id: "world"
twist: 
  linear: 
    x: 0.0
    y: 0.0
    z: 1.0
  angular: 
    x: 0.0
    y: 0.0
    z: -4.048088108425606
---
header: 
  seq: 50404
  stamp: 
    secs: 0
    nsecs:         0
  frame_id: "world"
twist: 
  linear: 
    x: 0.0
    y: 0.0
    z: 1.0
  angular: 
    x: 0.0
    y: 0.0
    z: -2.220692691519407
---
header: 
  seq: 50756
  stamp: 
    secs: 0
    nsecs:         0
  frame_id: "world"
twist: 
  linear: 
    x: 0.0
    y: 0.0
    z: 1.0
  angular: 
    x: 0.0
    y: 0.0
    z: 0.6477551027472198
---
header: 
  seq: 51151
  stamp: 
    secs: 0
    nsecs:         0
  frame_id: "world"
twist: 
  linear: 
    x: -0.400051201694157
    y: 0.028954806972435656
    z: 0.0
  angular: 
    x: 0.0
    y: 0.0
    z: 3.069340705871582
---
header: 
  seq: 51488
  stamp: 
    secs: 0
    nsecs:         0
  frame_id: "world"
twist: 
  linear: 
    x: 0.0
    y: 0.0
    z: 0.0
  angular: 
    x: 0.0
    y: 0.0
    z: -0.40419232845306396
---
header: 
  seq: 51852
  stamp: 
    secs: 0
    nsecs:         0
  frame_id: "world"
twist: 
  linear: 
    x: 0.0
    y: 0.0
    z: 1.0
  angular: 
    x: 0.0
    y: 0.0
    z: -5.882556676052185
---
header: 
  seq: 52237
  stamp: 
    secs: 0
    nsecs:         0
  frame_id: "world"
twist: 
  linear: 
    x: -0.31010436499388455
    y: 0.25371633551995526
    z: 0.0
  angular: 
    x: 0.0
    y: 0.0
    z: 2.455873489379883
---
header: 
  seq: 52578
  stamp: 
    secs: 0
    nsecs:         0
  frame_id: "world"
twist: 
  linear: 
    x: 0.27286948771319086
    y: -0.29811622639615004
    z: 0.0
  angular: 
    x: 0.0
    y: 0.0
    z: -0.8295852541923523
---
header: 
  seq: 52978
  stamp: 
    secs: 0
    nsecs:         0
  frame_id: "world"
twist: 
  linear: 
    x: 0.0
    y: 0.0
    z: 1.0
  angular: 
    x: 0.0
    y: 0.0
    z: 0.9901246925145665
---
header: 
  seq: 53310
  stamp: 
    secs: 0
    nsecs:         0
  frame_id: "world"
twist: 
  linear: 
    x: 0.0
    y: 0.0
    z: 1.0
  angular: 
    x: 0.0
    y: 0.0
    z: 3.0033450429630113
---
header: 
  seq: 53658
  stamp: 
    secs: 0
    nsecs:         0
  frame_id: "world"
twist: 
  linear: 
    x: 0.0
    y: 0.0
    z: 1.0
  angular: 
    x: 0.0
    y: 0.0
    z: 5.68996484662458
---
header: 
  seq: 54065
  stamp: 
    secs: 0
    nsecs:         0
  frame_id: "world"
twist: 
  linear: 
    x: -0.10520056112180023
    y: 0.3939173453813752
    z: 0.0
  angular: 
    x: 0.0
    y: 0.0
    z: 1.831768274307251
---
header: 
  seq: 54403
  stamp: 
    secs: 0
    nsecs:         0
  frame_id: "world"
twist: 
  linear: 
    x: 0.09582448942294258
    y: -0.4078914445085028
    z: 0.0
  angular: 
    x: 0.0
    y: 0.0
    z: -1.3400537967681885
---
header: 
  seq: 54782
  stamp: 
    secs: 0
    nsecs:         0
  frame_id: "world"
twist: 
  linear: 
    x: 0.0
    y: 0.0
    z: 1.0
  angular: 
    x: 0.0
    y: 0.0
    z: 0.08989875859687188
---
header: 
  seq: 55126
  stamp: 
    secs: 0
    nsecs:         0
  frame_id: "world"
twist: 
  linear: 
    x: 0.0
    y: 0.0
    z: 1.0
  angular: 
    x: 0.0
    y: 0.0
    z: 2.0163529040084684
---
header: 
  seq: 55483
  stamp: 
    secs: 0
    nsecs:         0
  frame_id: "world"
twist: 
  linear: 
    x: 0.0
    y: 0.0
    z: 1.0
  angular: 
    x: 0.0
    y: 0.0
    z: 4.527600036082918
---
header: 
  seq: 55804
  stamp: 
    secs: 0
    nsecs:         0
  frame_id: "world"
twist: 
  linear: 
    x: 0.15919870886190954
    y: -0.3387501845409759
    z: 0.0
  angular: 
    x: 0.0
    y: 0.0
    z: -1.1314690113067627
---
header: 
  seq: 56195
  stamp: 
    secs: 0
    nsecs:         0
  frame_id: "world"
twist: 
  linear: 
    x: 0.0
    y: 0.0
    z: 1.0
  angular: 
    x: 0.0
    y: 0.0
    z: 0.9039002294750259
---
header: 
  seq: 56561
  stamp: 
    secs: 0
    nsecs:         0
  frame_id: "world"
twist: 
  linear: 
    x: 0.0
    y: 0.0
    z: 1.0
  angular: 
    x: 0.0
    y: 0.0
    z: 3.16344837447588
---
header: 
  seq: 56928
  stamp: 
    secs: 0
    nsecs:         0
  frame_id: "world"
twist: 
  linear: 
    x: 0.0
    y: 0.0
    z: 1.0
  angular: 
    x: 0.0
    y: 0.0
    z: 4.8214453006213995
---
header: 
  seq: 57333
  stamp: 
    secs: 0
    nsecs:         0
  frame_id: "world"
twist: 
  linear: 
    x: 0.09261484024009722
    y: 0.39898209951108027
    z: 0.0
  angular: 
    x: 0.0
    y: 0.0
    z: 1.3427079916000366
---
header: 
  seq: 57642
  stamp: 
    secs: 0
    nsecs:         0
  frame_id: "world"
twist: 
  linear: 
    x: -0.06602673150346487
    y: -0.43419419561385936
    z: 0.0
  angular: 
    x: 0.0
    y: 0.0
    z: -1.7217075824737549
---
header: 
  seq: 58010
  stamp: 
    secs: 0
    nsecs:         0
  frame_id: "world"
twist: 
  linear: 
    x: 0.0
    y: 0.0
    z: 1.0
  angular: 
    x: 0.0
    y: 0.0
    z: -0.5591641606830379
---
header: 
  seq: 58358
  stamp: 
    secs: 0
    nsecs:         0
  frame_id: "world"
twist: 
  linear: 
    x: 0.0
    y: 0.0
    z: 1.0
  angular: 
    x: 0.0
    y: 0.0
    z: 1.4488996943838404
---
header: 
  seq: 58711
  stamp: 
    secs: 0
    nsecs:         0
  frame_id: "world"
twist: 
  linear: 
    x: 0.0
    y: 0.0
    z: 1.0
  angular: 
    x: 0.0
    y: 0.0
    z: 3.5549877784284845
---
header: 
  seq: 59135
  stamp: 
    secs: 0
    nsecs:         0
  frame_id: "world"
twist: 
  linear: 
    x: 0.0
    y: 0.0
    z: 1.0
  angular: 
    x: 0.0
    y: 0.0
    z: -0.49020142007306367
---
header: 
  seq: 59494
  stamp: 
    secs: 0
    nsecs:         0
  frame_id: "world"
twist: 
  linear: 
    x: 0.0
    y: 0.0
    z: 1.0
  angular: 
    x: 0.0
    y: 0.0
    z: 1.591707389492388
---
header: 
  seq: 59854
  stamp: 
    secs: 0
    nsecs:         0
  frame_id: "world"
twist: 
  linear: 
    x: 0.0
    y: 0.0
    z: 1.0
  angular: 
    x: 0.0
    y: 0.0
    z: 3.0905671391890737
---
header: 
  seq: 60283
  stamp: 
    secs: 0
    nsecs:         0
  frame_id: "world"
twist: 
  linear: 
    x: 0.0
    y: 0.0
    z: 1.0
  angular: 
    x: 0.0
    y: 0.0
    z: -0.883073865822149
---
header: 
  seq: 60658
  stamp: 
    secs: 0
    nsecs:         0
  frame_id: "world"
twist: 
  linear: 
    x: 0.0
    y: 0.0
    z: 1.0
  angular: 
    x: 0.0
    y: 0.0
    z: 1.3962585869701858
---
header: 
  seq: 61062
  stamp: 
    secs: 0
    nsecs:         0
  frame_id: "world"
twist: 
  linear: 
    x: 0.0
    y: 0.0
    z: 0.0
  angular: 
    x: 0.0
    y: 0.0
    z: 1.7653836011886597
---
header: 
  seq: 61316
  stamp: 
    secs: 0
    nsecs:         0
  frame_id: "world"
twist: 
  linear: 
    x: -0.2832814322311226
    y: 1.2939653708438168
    z: 0.0
  angular: 
    x: 0.0
    y: 0.0
    z: 1.7863210439682007
---
header: 
  seq: 61529
  stamp: 
    secs: 0
    nsecs:         0
  frame_id: "world"
twist: 
  linear: 
    x: -0.361474566495128
    y: 1.295558576986964
    z: 0.0
  angular: 
    x: 0.0
    y: 0.0
    z: 1.842887282371521
---
header: 
  seq: 61749
  stamp: 
    secs: 0
    nsecs:         0
  frame_id: "world"
twist: 
  linear: 
    x: 0.582386736948572
    y: 1.1846052875172972
    z: 0.0
  angular: 
    x: 0.0
    y: 0.0
    z: 1.1138676404953003
---
header: 
  seq: 61964
  stamp: 
    secs: 0
    nsecs:         0
  frame_id: "world"
twist: 
  linear: 
    x: -0.04341193817847219
    y: 0.48891712236227014
    z: 0.0
  angular: 
    x: 0.0
    y: 0.0
    z: 1.6593561172485352
---
header: 
  seq: 62343
  stamp: 
    secs: 0
    nsecs:         0
  frame_id: "world"
twist: 
  linear: 
    x: 0.0
    y: 0.0
    z: 1.0
  angular: 
    x: 0.0
    y: 0.0
    z: 0.7147806286811829
---
header: 
  seq: 62771
  stamp: 
    secs: 0
    nsecs:         0
  frame_id: "world"
twist: 
  linear: 
    x: 0.0
    y: 0.0
    z: 1.0
  angular: 
    x: 0.0
    y: 0.0
    z: 0.7121551632881165
---
header: 
  seq: 63198
  stamp: 
    secs: 0
    nsecs:         0
  frame_id: "world"
twist: 
  linear: 
    x: 0.0
    y: 0.0
    z: 1.0
  angular: 
    x: 0.0
    y: 0.0
    z: 0.7108399271965027
---
header: 
  seq: 63625
  stamp: 
    secs: 0
    nsecs:         0
  frame_id: "world"
twist: 
  linear: 
    x: 0.0
    y: 0.0
    z: 1.0
  angular: 
    x: 0.0
    y: 0.0
    z: 0.7099034190177917
---
header: 
  seq: 64055
  stamp: 
    secs: 0
    nsecs:         0
  frame_id: "world"
twist: 
  linear: 
    x: 0.0
    y: 0.0
    z: 1.0
  angular: 
    x: 0.0
    y: 0.0
    z: 0.707604706287384
---
header: 
  seq: 64484
  stamp: 
    secs: 0
    nsecs:         0
  frame_id: "world"
twist: 
  linear: 
    x: 0.0
    y: 0.0
    z: 1.0
  angular: 
    x: 0.0
    y: 0.0
    z: 0.7085892558097839
---
header: 
  seq: 64912
  stamp: 
    secs: 0
    nsecs:         0
  frame_id: "world"
twist: 
  linear: 
    x: 0.0
    y: 0.0
    z: 1.0
  angular: 
    x: 0.0
    y: 0.0
    z: 0.7098630666732788
---
header: 
  seq: 65343
  stamp: 
    secs: 0
    nsecs:         0
  frame_id: "world"
twist: 
  linear: 
    x: 0.0
    y: 0.0
    z: 1.0
  angular: 
    x: 0.0
    y: 0.0
    z: 0.7083773016929626
---
header: 
  seq: 65775
  stamp: 
    secs: 0
    nsecs:         0
  frame_id: "world"
twist: 
  linear: 
    x: 0.0
    y: 0.0
    z: 1.0
  angular: 
    x: 0.0
    y: 0.0
    z: 0.707984209060669
---
header: 
  seq: 66208
  stamp: 
    secs: 0
    nsecs:         0
  frame_id: "world"
twist: 
  linear: 
    x: 0.0
    y: 0.0
    z: 1.0
  angular: 
    x: 0.0
    y: 0.0
    z: 0.7092903852462769
---
header: 
  seq: 66635
  stamp: 
    secs: 0
    nsecs:         0
  frame_id: "world"
twist: 
  linear: 
    x: 0.0
    y: 0.0
    z: 1.0
  angular: 
    x: 0.0
    y: 0.0
    z: 0.708912193775177
---
header: 
  seq: 67060
  stamp: 
    secs: 0
    nsecs:         0
  frame_id: "world"
twist: 
  linear: 
    x: 0.0
    y: 0.0
    z: 1.0
  angular: 
    x: 0.0
    y: 0.0
    z: 0.7100728154182434
---
header: 
  seq: 67490
  stamp: 
    secs: 0
    nsecs:         0
  frame_id: "world"
twist: 
  linear: 
    x: 0.0
    y: 0.0
    z: 1.0
  angular: 
    x: 0.0
    y: 0.0
    z: 0.7093436121940613
---
header: 
  seq: 67915
  stamp: 
    secs: 0
    nsecs:         0
  frame_id: "world"
twist: 
  linear: 
    x: 0.0
    y: 0.0
    z: 1.0
  angular: 
    x: 0.0
    y: 0.0
    z: 0.7077786922454834
---
header: 
  seq: 68340
  stamp: 
    secs: 0
    nsecs:         0
  frame_id: "world"
twist: 
  linear: 
    x: 0.0
    y: 0.0
    z: 1.0
  angular: 
    x: 0.0
    y: 0.0
    z: 0.7102627158164978
---
header: 
  seq: 68767
  stamp: 
    secs: 0
    nsecs:         0
  frame_id: "world"
twist: 
  linear: 
    x: 0.0
    y: 0.0
    z: 1.0
  angular: 
    x: 0.0
    y: 0.0
    z: 0.7089865207672119
---
header: 
  seq: 69192
  stamp: 
    secs: 0
    nsecs:         0
  frame_id: "world"
twist: 
  linear: 
    x: 0.0
    y: 0.0
    z: 1.0
  angular: 
    x: 0.0
    y: 0.0
    z: 0.7134588360786438
---
header: 
  seq: 69618
  stamp: 
    secs: 0
    nsecs:         0
  frame_id: "world"
twist: 
  linear: 
    x: 0.0
    y: 0.0
    z: 1.0
  angular: 
    x: 0.0
    y: 0.0
    z: 0.7124817371368408
---
header: 
  seq: 70023
  stamp: 
    secs: 0
    nsecs:         0
  frame_id: "world"
twist: 
  linear: 
    x: 0.0
    y: 0.0
    z: 1.0
  angular: 
    x: 0.0
    y: 0.0
    z: 0.7121418118476868
---
header: 
  seq: 70448
  stamp: 
    secs: 0
    nsecs:         0
  frame_id: "world"
twist: 
  linear: 
    x: 0.0
    y: 0.0
    z: 1.0
  angular: 
    x: 0.0
    y: 0.0
    z: 0.7120339870452881
---
header: 
  seq: 70875
  stamp: 
    secs: 0
    nsecs:         0
  frame_id: "world"
twist: 
  linear: 
    x: 0.0
    y: 0.0
    z: 1.0
  angular: 
    x: 0.0
    y: 0.0
    z: 0.7094131112098694
---
header: 
  seq: 71301
  stamp: 
    secs: 0
    nsecs:         0
  frame_id: "world"
twist: 
  linear: 
    x: 0.0
    y: 0.0
    z: 1.0
  angular: 
    x: 0.0
    y: 0.0
    z: 0.7099335193634033
---
header: 
  seq: 71728
  stamp: 
    secs: 0
    nsecs:         0
  frame_id: "world"
twist: 
  linear: 
    x: 0.0
    y: 0.0
    z: 1.0
  angular: 
    x: 0.0
    y: 0.0
    z: 0.7087926268577576
---
header: 
  seq: 72127
  stamp: 
    secs: 0
    nsecs:         0
  frame_id: "world"
twist: 
  linear: 
    x: 0.0
    y: 0.0
    z: 1.0
  angular: 
    x: 0.0
    y: 0.0
    z: 0.692524254322052
---
header: 
  seq: 72558
  stamp: 
    secs: 0
    nsecs:         0
  frame_id: "world"
twist: 
  linear: 
    x: 0.0
    y: 0.0
    z: 1.0
  angular: 
    x: 0.0
    y: 0.0
    z: 0.9153319001197815
---
header: 
  seq: 72963
  stamp: 
    secs: 0
    nsecs:         0
  frame_id: "world"
twist: 
  linear: 
    x: -0.664483963813055
    y: -1.1733987564560104
    z: 0.0
  angular: 
    x: 0.0
    y: 0.0
    z: -2.0860602855682373
---
header: 
  seq: 73300
  stamp: 
    secs: 0
    nsecs:         0
  frame_id: "world"
twist: 
  linear: 
    x: 0.0
    y: 0.0
    z: 1.0
  angular: 
    x: 0.0
    y: 0.0
    z: 1.0047346353530884
---
header: 
  seq: 73697
  stamp: 
    secs: 0
    nsecs:         0
  frame_id: "world"
twist: 
  linear: 
    x: 0.20141080325645913
    y: -1.3298774206816555
    z: 0.0
  angular: 
    x: 0.0
    y: 0.0
    z: -1.420487880706787
---
header: 
  seq: 73917
  stamp: 
    secs: 0
    nsecs:         0
  frame_id: "world"
twist: 
  linear: 
    x: 0.30317213203879195
    y: -1.276824762335424
    z: 0.0
  angular: 
    x: 0.0
    y: 0.0
    z: -1.3376710414886475
---
header: 
  seq: 74144
  stamp: 
    secs: 0
    nsecs:         0
  frame_id: "world"
twist: 
  linear: 
    x: 0.0
    y: 0.0
    z: 1.0
  angular: 
    x: 0.0
    y: 0.0
    z: -1.3386352249197229
---
header: 
  seq: 74533
  stamp: 
    secs: 0
    nsecs:         0
  frame_id: "world"
twist: 
  linear: 
    x: 1.1017098704506034
    y: -0.7596386509277155
    z: 0.0
  angular: 
    x: 0.0
    y: 0.0
    z: -0.6036501526832581
---
header: 
  seq: 74754
  stamp: 
    secs: 0
    nsecs:         0
  frame_id: "world"
twist: 
  linear: 
    x: 1.113048745730558
    y: -0.7379274775310938
    z: 0.0
  angular: 
    x: 0.0
    y: 0.0
    z: -0.5854448676109314
---
header: 
  seq: 74968
  stamp: 
    secs: 0
    nsecs:         0
  frame_id: "world"
twist: 
  linear: 
    x: 1.3173357441144014
    y: -0.11626855765821338
    z: 0.0
  angular: 
    x: 0.0
    y: 0.0
    z: -0.08803224563598633
---
header: 
  seq: 75181
  stamp: 
    secs: 0
    nsecs:         0
  frame_id: "world"
twist: 
  linear: 
    x: 1.1031495900617272
    y: 0.5138060997977768
    z: 0.0
  angular: 
    x: 0.0
    y: 0.0
    z: 0.4358847141265869
---
header: 
  seq: 75396
  stamp: 
    secs: 0
    nsecs:         0
  frame_id: "world"
twist: 
  linear: 
    x: 0.7391529188170507
    y: 1.076317051975791
    z: 0.0
  angular: 
    x: 0.0
    y: 0.0
    z: 0.9690233469009399
---
header: 
  seq: 75608
  stamp: 
    secs: 0
    nsecs:         0
  frame_id: "world"
twist: 
  linear: 
    x: 0.9184874496425086
    y: 0.23254220016577573
    z: 0.0
  angular: 
    x: 0.0
    y: 0.0
    z: 0.24796883761882782
---
header: 
  seq: 75821
  stamp: 
    secs: 0
    nsecs:         0
  frame_id: "world"
twist: 
  linear: 
    x: 0.29708454808172013
    y: -0.5550495886377089
    z: 0.0
  angular: 
    x: 0.0
    y: 0.0
    z: -1.079356074333191
---
header: 
  seq: 76219
  stamp: 
    secs: 0
    nsecs:         0
  frame_id: "world"
twist: 
  linear: 
    x: -0.1315561967729884
    y: -0.5743736535793945
    z: 0.0
  angular: 
    x: 0.0
    y: 0.0
    z: -1.7959554195404053
---
header: 
  seq: 76486
  stamp: 
    secs: 0
    nsecs:         0
  frame_id: "world"
twist: 
  linear: 
    x: 0.43113881872518256
    y: -0.11597311004601704
    z: 0.0
  angular: 
    x: 0.0
    y: 0.0
    z: -0.26277247071266174
---
header: 
  seq: 76801
  stamp: 
    secs: 0
    nsecs:         0
  frame_id: "world"
twist: 
  linear: 
    x: 0.0
    y: 0.0
    z: 1.0
  angular: 
    x: 0.0
    y: 0.0
    z: 3.0547186492707494
---
header: 
  seq: 77191
  stamp: 
    secs: 0
    nsecs:         0
  frame_id: "world"
twist: 
  linear: 
    x: 0.0
    y: 0.0
    z: 1.0
  angular: 
    x: 0.0
    y: 0.0
    z: 4.371180892931479
---
header: 
  seq: 77519
  stamp: 
    secs: 0
    nsecs:         0
  frame_id: "world"
twist: 
  linear: 
    x: 0.19686066695684942
    y: 0.354203997339312
    z: 0.0
  angular: 
    x: 0.0
    y: 0.0
    z: 1.063523769378662
---
header: 
  seq: 77830
  stamp: 
    secs: 0
    nsecs:         0
  frame_id: "world"
twist: 
  linear: 
    x: 0.0
    y: 0.0
    z: 0.0
  angular: 
    x: 0.0
    y: 0.0
    z: -1.8824537992477417
---
header: 
  seq: 78162
  stamp: 
    secs: 0
    nsecs:         0
  frame_id: "world"
twist: 
  linear: 
    x: 0.17114546681047557
    y: 0.4281253201323727
    z: 0.0
  angular: 
    x: 0.0
    y: 0.0
    z: 1.1905007362365723
---
header: 
  seq: 78466
  stamp: 
    secs: 0
    nsecs:         0
  frame_id: "world"
twist: 
  linear: 
    x: -0.20269638891168143
    y: -0.3405782947884779
    z: 0.0
  angular: 
    x: 0.0
    y: 0.0
    z: -2.1076443195343018
---
header: 
  seq: 78774
  stamp: 
    secs: 0
    nsecs:         0
  frame_id: "world"
twist: 
  linear: 
    x: 0.0
    y: 0.0
    z: 0.0
  angular: 
    x: 0.0
    y: 0.0
    z: 2.139185905456543
---
header: 
  seq: 79154
  stamp: 
    secs: 0
    nsecs:         0
  frame_id: "world"
twist: 
  linear: 
    x: 0.0
    y: 0.0
    z: 0.0
  angular: 
    x: 0.0
    y: 0.0
    z: 1.651034951210022
---
header: 
  seq: 79511
  stamp: 
    secs: 0
    nsecs:         0
  frame_id: "world"
twist: 
  linear: 
    x: 0.0
    y: 0.0
    z: 1.0
  angular: 
    x: 0.0
    y: 0.0
    z: 3.529609130282813
---
header: 
  seq: 79869
  stamp: 
    secs: 0
    nsecs:         0
  frame_id: "world"
twist: 
  linear: 
    x: 0.0
    y: 0.0
    z: 1.0
  angular: 
    x: 0.0
    y: 0.0
    z: -0.7402654375137087
---
header: 
  seq: 80294
  stamp: 
    secs: 0
    nsecs:         0
  frame_id: "world"
twist: 
  linear: 
    x: 0.0
    y: 0.0
    z: 1.0
  angular: 
    x: 0.0
    y: 0.0
    z: 2.2402687072753906
---
header: 
  seq: 80724
  stamp: 
    secs: 0
    nsecs:         0
  frame_id: "world"
twist: 
  linear: 
    x: 0.0
    y: 0.0
    z: 1.0
  angular: 
    x: 0.0
    y: 0.0
    z: 3.942722042424441
---
header: 
  seq: 81132
  stamp: 
    secs: 0
    nsecs:         0
  frame_id: "world"
twist: 
  linear: 
    x: 0.2989210396794077
    y: 0.3563301172232758
    z: 0.0
  angular: 
    x: 0.0
    y: 0.0
    z: 0.8727888464927673
---
header: 
  seq: 81448
  stamp: 
    secs: 0
    nsecs:         0
  frame_id: "world"
twist: 
  linear: 
    x: -0.32615454941179667
    y: -0.1919195355635417
    z: 0.0
  angular: 
    x: 0.0
    y: 0.0
    z: -2.609722852706909
---
header: 
  seq: 81751
  stamp: 
    secs: 0
    nsecs:         0
  frame_id: "world"
twist: 
  linear: 
    x: 0.32831347089522667
    y: 0.2952470473380915
    z: 0.0
  angular: 
    x: 0.0
    y: 0.0
    z: 0.7324193716049194
---
header: 
  seq: 82065
  stamp: 
    secs: 0
    nsecs:         0
  frame_id: "world"
twist: 
  linear: 
    x: -0.340453880235493
    y: -0.2642425069281012
    z: 0.0
  angular: 
    x: 0.0
    y: 0.0
    z: -2.4815659523010254
---
header: 
  seq: 82375
  stamp: 
    secs: 0
    nsecs:         0
  frame_id: "world"
twist: 
  linear: 
    x: 0.0
    y: 0.0
    z: 1.0
  angular: 
    x: 0.0
    y: 0.0
    z: -1.0345006744356713
---
header: 
  seq: 82703
  stamp: 
    secs: 0
    nsecs:         0
  frame_id: "world"
twist: 
  linear: 
    x: -0.19025232747561793
    y: 0.3953211401755039
    z: 0.0
  angular: 
    x: 0.0
    y: 0.0
    z: 2.0193400382995605
---
header: 
  seq: 83003
  stamp: 
    secs: 0
    nsecs:         0
  frame_id: "world"
twist: 
  linear: 
    x: 0.0
    y: 0.0
    z: 1.0
  angular: 
    x: 0.0
    y: 0.0
    z: -2.0611584840295394
---
header: 
  seq: 83352
  stamp: 
    secs: 0
    nsecs:         0
  frame_id: "world"
twist: 
  linear: 
    x: 0.0
    y: 0.0
    z: 1.0
  angular: 
    x: 0.0
    y: 0.0
    z: 0.4950151044295861
---
header: 
  seq: 83646
  stamp: 
    secs: 0
    nsecs:         0
  frame_id: "world"
twist: 
  linear: 
    x: -0.3140325660297437
    y: -0.23817783856888355
    z: 0.0
  angular: 
    x: 0.0
    y: 0.0
    z: -2.492705821990967
---
header: 
  seq: 83990
  stamp: 
    secs: 0
    nsecs:         0
  frame_id: "world"
twist: 
  linear: 
    x: 0.0
    y: 0.0
    z: 1.0
  angular: 
    x: 0.0
    y: 0.0
    z: 0.17861295826569115
---
header: 
  seq: 84312
  stamp: 
    secs: 0
    nsecs:         0
  frame_id: "world"
twist: 
  linear: 
    x: -0.42250439040323395
    y: -0.13100715652516345
    z: 0.0
  angular: 
    x: 0.0
    y: 0.0
    z: -2.8409204483032227
---
header: 
  seq: 84710
  stamp: 
    secs: 0
    nsecs:         0
  frame_id: "world"
twist: 
  linear: 
    x: -1.3268816417409943
    y: -0.10440277224198813
    z: 0.0
  angular: 
    x: 0.0
    y: 0.0
    z: -3.0630717277526855
---
header: 
  seq: 85079
  stamp: 
    secs: 0
    nsecs:         0
  frame_id: "world"
twist: 
  linear: 
    x: 0.0
    y: 0.0
    z: 0.0
  angular: 
    x: 0.0
    y: 0.0
    z: 2.38635516166687
---
header: 
  seq: 85298
  stamp: 
    secs: 0
    nsecs:         0
  frame_id: "world"
twist: 
  linear: 
    x: -0.48497004559266016
    y: 0.9583915003967259
    z: 0.0
  angular: 
    x: 0.0
    y: 0.0
    z: 2.039252281188965
---
header: 
  seq: 85513
  stamp: 
    secs: 0
    nsecs:         0
  frame_id: "world"
twist: 
  linear: 
    x: -0.6227986473402253
    y: 1.1595880951790172
    z: 0.0
  angular: 
    x: 0.0
    y: 0.0
    z: 2.0636706352233887
---
header: 
  seq: 85725
  stamp: 
    secs: 0
    nsecs:         0
  frame_id: "world"
twist: 
  linear: 
    x: -0.5876808933549269
    y: 1.1957299486034845
    z: 0.0
  angular: 
    x: 0.0
    y: 0.0
    z: 2.027606964111328
---
header: 
  seq: 85944
  stamp: 
    secs: 0
    nsecs:         0
  frame_id: "world"
twist: 
  linear: 
    x: 0.0
    y: 0.0
    z: 0.0
  angular: 
    x: 0.0
    y: 0.0
    z: -1.7616558074951172
---
header: 
  seq: 86220
  stamp: 
    secs: 0
    nsecs:         0
  frame_id: "world"
twist: 
  linear: 
    x: -0.1762714876869479
    y: -0.591976156607472
    z: 0.0
  angular: 
    x: 0.0
    y: 0.0
    z: -1.8602041006088257
---
header: 
  seq: 86517
  stamp: 
    secs: 0
    nsecs:         0
  frame_id: "world"
twist: 
  linear: 
    x: 0.0
    y: 0.0
    z: 1.0
  angular: 
    x: 0.0
    y: 0.0
    z: -1.5169748368099978
---
header: 
  seq: 86800
  stamp: 
    secs: 0
    nsecs:         0
  frame_id: "world"
twist: 
  linear: 
    x: 0.42289549518437014
    y: 1.2463005053538994
    z: 0.0
  angular: 
    x: 0.0
    y: 0.0
    z: 1.2436668872833252
---
header: 
  seq: 87011
  stamp: 
    secs: 0
    nsecs:         0
  frame_id: "world"
twist: 
  linear: 
    x: 0.11825923178233623
    y: 0.36728543843664513
    z: 0.0
  angular: 
    x: 0.0
    y: 0.0
    z: 1.2592966556549072
---
header: 
  seq: 87292
  stamp: 
    secs: 0
    nsecs:         0
  frame_id: "world"
twist: 
  linear: 
    x: -1.1362628534561128
    y: -0.7101674992922611
    z: 0.0
  angular: 
    x: 0.0
    y: 0.0
    z: -2.582991361618042
---
header: 
  seq: 87611
  stamp: 
    secs: 0
    nsecs:         0
  frame_id: "world"
twist: 
  linear: 
    x: 0.0
    y: 0.0
    z: 0.0
  angular: 
    x: 0.0
    y: 0.0
    z: -0.721549928188324
---
header: 
  seq: 87948
  stamp: 
    secs: 0
    nsecs:         0
  frame_id: "world"
twist: 
  linear: 
    x: 1.2704725881609324
    y: 0.4273533458346962
    z: 0.0
  angular: 
    x: 0.0
    y: 0.0
    z: 0.3244841992855072
---
header: 
  seq: 88168
  stamp: 
    secs: 0
    nsecs:         0
  frame_id: "world"
twist: 
  linear: 
    x: 0.0
    y: 0.0
    z: 0.0
  angular: 
    x: 0.0
    y: 0.0
    z: -2.3268964290618896
---
header: 
  seq: 88432
  stamp: 
    secs: 0
    nsecs:         0
  frame_id: "world"
twist: 
  linear: 
    x: -0.7698893593591646
    y: -0.9781273008223483
    z: 0.0
  angular: 
    x: 0.0
    y: 0.0
    z: -2.2376251220703125
---
header: 
  seq: 88693
  stamp: 
    secs: 0
    nsecs:         0
  frame_id: "world"
twist: 
  linear: 
    x: 0.0
    y: 0.0
    z: 0.0
  angular: 
    x: 0.0
    y: 0.0
    z: 0.3085053265094757
---
header: 
  seq: 88936
  stamp: 
    secs: 0
    nsecs:         0
  frame_id: "world"
twist: 
  linear: 
    x: 1.2901831066043477
    y: 0.3623124366743209
    z: 0.0
  angular: 
    x: 0.0
    y: 0.0
    z: 0.2737712562084198
---
header: 
  seq: 89215
  stamp: 
    secs: 0
    nsecs:         0
  frame_id: "world"
twist: 
  linear: 
    x: -1.1803202950610303
    y: -0.6514850646854694
    z: 0.0
  angular: 
    x: 0.0
    y: 0.0
    z: -2.6372487545013428
---
header: 
  seq: 89426
  stamp: 
    secs: 0
    nsecs:         0
  frame_id: "world"
twist: 
  linear: 
    x: -1.2420545595075432
    y: -0.5070194347631576
    z: 0.0
  angular: 
    x: 0.0
    y: 0.0
    z: -2.754028558731079
---
header: 
  seq: 89641
  stamp: 
    secs: 0
    nsecs:         0
  frame_id: "world"
twist: 
  linear: 
    x: 0.0
    y: 0.0
    z: 0.0
  angular: 
    x: 0.0
    y: 0.0
    z: 0.887182891368866
---
header: 
  seq: 89913
  stamp: 
    secs: 0
    nsecs:         0
  frame_id: "world"
twist: 
  linear: 
    x: 0.5845140430059679
    y: 1.185344741444361
    z: 0.0
  angular: 
    x: 0.0
    y: 0.0
    z: 1.1126699447631836
---
header: 
  seq: 90125
  stamp: 
    secs: 0
    nsecs:         0
  frame_id: "world"
twist: 
  linear: 
    x: 0.33323825803362367
    y: 0.4565611155488628
    z: 0.0
  angular: 
    x: 0.0
    y: 0.0
    z: 0.9402920007705688
---
header: 
  seq: 90423
  stamp: 
    secs: 0
    nsecs:         0
  frame_id: "world"
twist: 
  linear: 
    x: -0.2706377341740111
    y: -1.2796247937423173
    z: 0.0
  angular: 
    x: 0.0
    y: 0.0
    z: -1.7792226076126099
---
header: 
  seq: 90637
  stamp: 
    secs: 0
    nsecs:         0
  frame_id: "world"
twist: 
  linear: 
    x: -0.5752180750915732
    y: -0.5935348684615359
    z: 0.0
  angular: 
    x: 0.0
    y: 0.0
    z: -2.3405237197875977
---
header: 
  seq: 90888
  stamp: 
    secs: 0
    nsecs:         0
  frame_id: "world"
twist: 
  linear: 
    x: 0.897735137966864
    y: 0.9748289374497867
    z: 0.0
  angular: 
    x: 0.0
    y: 0.0
    z: 0.8265451192855835
---
header: 
  seq: 91102
  stamp: 
    secs: 0
    nsecs:         0
  frame_id: "world"
twist: 
  linear: 
    x: 0.8294007721020135
    y: 1.0318732675534297
    z: 0.0
  angular: 
    x: 0.0
    y: 0.0
    z: 0.893753707408905
---
header: 
  seq: 91347
  stamp: 
    secs: 0
    nsecs:         0
  frame_id: "world"
twist: 
  linear: 
    x: 0.0
    y: 0.0
    z: 0.0
  angular: 
    x: 0.0
    y: 0.0
    z: -2.081209421157837
---
header: 
  seq: 91597
  stamp: 
    secs: 0
    nsecs:         0
  frame_id: "world"
twist: 
  linear: 
    x: -0.4012830752753432
    y: -0.5894192087394967
    z: 0.0
  angular: 
    x: 0.0
    y: 0.0
    z: -2.168527364730835
---
header: 
  seq: 91903
  stamp: 
    secs: 0
    nsecs:         0
  frame_id: "world"
twist: 
  linear: 
    x: 0.0
    y: 0.0
    z: 1.0
  angular: 
    x: 0.0
    y: 0.0
    z: -1.5846908454324486
---
header: 
  seq: 92191
  stamp: 
    secs: 0
    nsecs:         0
  frame_id: "world"
twist: 
  linear: 
    x: 0.8983009087503689
    y: 0.9843285167627066
    z: 0.0
  angular: 
    x: 0.0
    y: 0.0
    z: 0.8310618996620178
---
header: 
  seq: 92407
  stamp: 
    secs: 0
    nsecs:         0
  frame_id: "world"
twist: 
  linear: 
    x: 0.0
    y: 0.0
    z: 0.0
  angular: 
    x: 0.0
    y: 0.0
    z: -2.3034958839416504
---
header: 
  seq: 92687
  stamp: 
    secs: 0
    nsecs:         0
  frame_id: "world"
twist: 
  linear: 
    x: -0.8044000360632453
    y: -1.059339386322937
    z: 0.0
  angular: 
    x: 0.0
    y: 0.0
    z: -2.2202489376068115
---
header: 
  seq: 92901
  stamp: 
    secs: 0
    nsecs:         0
  frame_id: "world"
twist: 
  linear: 
    x: -0.3686835743476813
    y: -0.24393447202916707
    z: 0.0
  angular: 
    x: 0.0
    y: 0.0
    z: -2.5570805072784424
---
header: 
  seq: 93169
  stamp: 
    secs: 0
    nsecs:         0
  frame_id: "world"
twist: 
  linear: 
    x: 0.32275083149141526
    y: 1.2837344313653818
    z: 0.0
  angular: 
    x: 0.0
    y: 0.0
    z: 1.3244856595993042
---
header: 
  seq: 93381
  stamp: 
    secs: 0
    nsecs:         0
  frame_id: "world"
twist: 
  linear: 
    x: 0.25790296573067784
    y: 0.6447865005255979
    z: 0.0
  angular: 
    x: 0.0
    y: 0.0
    z: 1.190305471420288
---
header: 
  seq: 93653
  stamp: 
    secs: 0
    nsecs:         0
  frame_id: "world"
twist: 
  linear: 
    x: 0.2518993295517483
    y: -1.31723834539186
    z: 0.0
  angular: 
    x: 0.0
    y: 0.0
    z: -1.3818446397781372
---
header: 
  seq: 93894
  stamp: 
    secs: 0
    nsecs:         0
  frame_id: "world"
twist: 
  linear: 
    x: 0.0
    y: 0.0
    z: 1.0
  angular: 
    x: 0.0
    y: 0.0
    z: -1.1063001017246636
---
header: 
  seq: 94261
  stamp: 
    secs: 0
    nsecs:         0
  frame_id: "world"
twist: 
  linear: 
    x: 0.0
    y: 0.0
    z: 0.0
  angular: 
    x: 0.0
    y: 0.0
    z: 3.000723123550415
---
header: 
  seq: 94560
  stamp: 
    secs: 0
    nsecs:         0
  frame_id: "world"
twist: 
  linear: 
    x: 1.3411143024165773
    y: -0.10513551867559993
    z: 0.0
  angular: 
    x: 0.0
    y: 0.0
    z: -0.07823418825864792
---
header: 
  seq: 94816
  stamp: 
    secs: 0
    nsecs:         0
  frame_id: "world"
twist: 
  linear: 
    x: 0.0
    y: 0.0
    z: 0.0
  angular: 
    x: 0.0
    y: 0.0
    z: -2.093987464904785
---
header: 
  seq: 95066
  stamp: 
    secs: 0
    nsecs:         0
  frame_id: "world"
twist: 
  linear: 
    x: -0.5131195458441297
    y: -0.5974905499712668
    z: 0.0
  angular: 
    x: 0.0
    y: 0.0
    z: -2.280371904373169
---
header: 
  seq: 95460
  stamp: 
    secs: 0
    nsecs:         0
  frame_id: "world"
twist: 
  linear: 
    x: 0.0
    y: 0.0
    z: 1.0
  angular: 
    x: 0.0
    y: 0.0
    z: -1.2937591075897217
---
header: 
  seq: 95813
  stamp: 
    secs: 0
    nsecs:         0
  frame_id: "world"
twist: 
  linear: 
    x: 0.5376610102267932
    y: 1.2248209089864297
    z: 0.0
  angular: 
    x: 0.0
    y: 0.0
    z: 1.157151699066162
---
header: 
  seq: 96027
  stamp: 
    secs: 0
    nsecs:         0
  frame_id: "world"
twist: 
  linear: 
    x: 0.6403142080373959
    y: 0.9446966527372475
    z: 0.0
  angular: 
    x: 0.0
    y: 0.0
    z: 0.9751264452934265
---
header: 
  seq: 96310
  stamp: 
    secs: 0
    nsecs:         0
  frame_id: "world"
twist: 
  linear: 
    x: 0.0
    y: 0.0
    z: 0.0
  angular: 
    x: 0.0
    y: 0.0
    z: -2.0002193450927734
---
header: 
  seq: 96546
  stamp: 
    secs: 0
    nsecs:         0
  frame_id: "world"
twist: 
  linear: 
    x: -0.40448419835866944
    y: -0.4985811341301962
    z: 0.0
  angular: 
    x: 0.0
    y: 0.0
    z: -2.2523717880249023
---
header: 
  seq: 96883
  stamp: 
    secs: 0
    nsecs:         0
  frame_id: "world"
twist: 
  linear: 
    x: 0.18818390067635626
    y: -0.3219316915746843
    z: 0.0
  angular: 
    x: 0.0
    y: 0.0
    z: -1.041817545890808
---
header: 
  seq: 97156
  stamp: 
    secs: 0
    nsecs:         0
  frame_id: "world"
twist: 
  linear: 
    x: 0.621889464972207
    y: 0.7991695875997661
    z: 0.0
  angular: 
    x: 0.0
    y: 0.0
    z: 0.9095090627670288
---
header: 
  seq: 97441
  stamp: 
    secs: 0
    nsecs:         0
  frame_id: "world"
twist: 
  linear: 
    x: -0.6162447013845921
    y: -1.1755037060716147
    z: 0.0
  angular: 
    x: 0.0
    y: 0.0
    z: -2.0536463260650635
---
header: 
  seq: 97692
  stamp: 
    secs: 0
    nsecs:         0
  frame_id: "world"
twist: 
  linear: 
    x: -0.339141728791497
    y: -0.18280148887707895
    z: 0.0
  angular: 
    x: 0.0
    y: 0.0
    z: -2.6472244262695312
---
header: 
  seq: 98023
  stamp: 
    secs: 0
    nsecs:         0
  frame_id: "world"
twist: 
  linear: 
    x: 1.0567362574150494
    y: -0.17688103843321704
    z: 0.0
  angular: 
    x: 0.0
    y: 0.0
    z: -0.1658468097448349
---
header: 
  seq: 98308
  stamp: 
    secs: 0
    nsecs:         0
  frame_id: "world"
twist: 
  linear: 
    x: 0.0
    y: 0.0
    z: 0.0
  angular: 
    x: 0.0
    y: 0.0
    z: -3.0737287998199463
---
header: 
  seq: 98536
  stamp: 
    secs: 0
    nsecs:         0
  frame_id: "world"
twist: 
  linear: 
    x: -0.37864505184783914
    y: -0.005234809442004066
    z: 0.0
  angular: 
    x: 0.0
    y: 0.0
    z: -3.1277685165405273
---
header: 
  seq: 98938
  stamp: 
    secs: 0
    nsecs:         0
  frame_id: "world"
twist: 
  linear: 
    x: 0.0
    y: 0.0
    z: 1.0
  angular: 
    x: 0.0
    y: 0.0
    z: -0.9659802452832723
---
header: 
  seq: 99193
  stamp: 
    secs: 0
    nsecs:         0
  frame_id: "world"
twist: 
  linear: 
    x: 0.8514102756755031
    y: 0.5697023841747384
    z: 0.0
  angular: 
    x: 0.0
    y: 0.0
    z: 0.5897046327590942
---
header: 
  seq: 99480
  stamp: 
    secs: 0
    nsecs:         0
  frame_id: "world"
twist: 
  linear: 
    x: -0.5441812604026296
    y: -0.2716598477727079
    z: 0.0
  angular: 
    x: 0.0
    y: 0.0
    z: -2.6785783767700195
---
header: 
  seq: 99727
  stamp: 
    secs: 0
    nsecs:         0
  frame_id: "world"
twist: 
  linear: 
    x: -0.9704286605053085
    y: -0.5779788849138283
    z: 0.0
  angular: 
    x: 0.0
    y: 0.0
    z: -2.6044211387634277
---
header: 
  seq: 99978
  stamp: 
    secs: 0
    nsecs:         0
  frame_id: "world"
twist: 
  linear: 
    x: -0.3469770685346491
    y: -0.15517444990066293
    z: 0.0
  angular: 
    x: 0.0
    y: 0.0
    z: -2.7210545539855957
---
header: 
  seq: 100365
  stamp: 
    secs: 0
    nsecs:         0
  frame_id: "world"
twist: 
  linear: 
    x: 0.0
    y: 0.0
    z: 0.0
  angular: 
    x: 0.0
    y: 0.0
    z: 1.9261590242385864
---
header: 
  seq: 100597
  stamp: 
    secs: 0
    nsecs:         0
  frame_id: "world"
twist: 
  linear: 
    x: -0.06657529842394524
    y: 0.44542297981409856
    z: 0.0
  angular: 
    x: 0.0
    y: 0.0
    z: 1.7191635370254517
---
header: 
  seq: 100973
  stamp: 
    secs: 0
    nsecs:         0
  frame_id: "world"
twist: 
  linear: 
    x: 0.0
    y: 0.0
    z: 1.0
  angular: 
    x: 0.0
    y: 0.0
    z: 2.5240424946030076
---
header: 
  seq: 101248
  stamp: 
    secs: 0
    nsecs:         0
  frame_id: "world"
twist: 
  linear: 
    x: -0.10287858397598039
    y: -0.6132411686430259
    z: 0.0
  angular: 
    x: 0.0
    y: 0.0
    z: -1.7370105981826782
---
header: 
  seq: 101533
  stamp: 
    secs: 0
    nsecs:         0
  frame_id: "world"
twist: 
  linear: 
    x: -0.09336959015012904
    y: 0.7126617221432588
    z: 0.0
  angular: 
    x: 0.0
    y: 0.0
    z: 1.7010694742202759
---
header: 
  seq: 101832
  stamp: 
    secs: 0
    nsecs:         0
  frame_id: "world"
twist: 
  linear: 
    x: 0.0
    y: 0.0
    z: 1.0
  angular: 
    x: 0.0
    y: 0.0
    z: 1.1744453043915488
---
header: 
  seq: 102195
  stamp: 
    secs: 0
    nsecs:         0
  frame_id: "world"
twist: 
  linear: 
    x: -0.0737468578416355
    y: -1.3327686648735615
    z: 0.0
  angular: 
    x: 0.0
    y: 0.0
    z: -1.6260735988616943
---
header: 
  seq: 102421
  stamp: 
    secs: 0
    nsecs:         0
  frame_id: "world"
twist: 
  linear: 
    x: 0.0
    y: 0.0
    z: 1.0
  angular: 
    x: 0.0
    y: 0.0
    z: -1.5402440850044017
---
header: 
  seq: 102794
  stamp: 
    secs: 0
    nsecs:         0
  frame_id: "world"
twist: 
  linear: 
    x: 0.3817047372524346
    y: 1.2785122913230322
    z: 0.0
  angular: 
    x: 0.0
    y: 0.0
    z: 1.2806668281555176
---
header: 
  seq: 103009
  stamp: 
    secs: 0
    nsecs:         0
  frame_id: "world"
twist: 
  linear: 
    x: 0.20695701892440252
    y: 0.40325287262766973
    z: 0.0
  angular: 
