header: 
  seq: 1953
  stamp: 
    secs: 0
    nsecs:         0
  frame_id: "world"
twist: 
  linear: 
    x: 0.0
    y: 0.0
    z: 0.0
  angular: 
    x: 0.0
    y: 0.0
    z: -2.0758564472198486
---
header: 
  seq: 2380
  stamp: 
    secs: 0
    nsecs:         0
  frame_id: "world"
twist: 
  linear: 
    x: 0.0
    y: 0.0
    z: 0.0
  angular: 
    x: 0.0
    y: 0.0
    z: -2.037036657333374
---
header: 
  seq: 2804
  stamp: 
    secs: 0
    nsecs:         0
  frame_id: "world"
twist: 
  linear: 
    x: 0.0
    y: 0.0
    z: 0.0
  angular: 
    x: 0.0
    y: 0.0
    z: -2.206083059310913
---
header: 
  seq: 3232
  stamp: 
    secs: 0
    nsecs:         0
  frame_id: "world"
twist: 
  linear: 
    x: 0.0
    y: 0.0
    z: 0.0
  angular: 
    x: 0.0
    y: 0.0
    z: -2.206249952316284
---
header: 
  seq: 3657
  stamp: 
    secs: 0
    nsecs:         0
  frame_id: "world"
twist: 
  linear: 
    x: 0.0
    y: 0.0
    z: 0.0
  angular: 
    x: 0.0
    y: 0.0
    z: -2.206655740737915
---
header: 
  seq: 4084
  stamp: 
    secs: 0
    nsecs:         0
  frame_id: "world"
twist: 
  linear: 
    x: 0.0
    y: 0.0
    z: 0.0
  angular: 
    x: 0.0
    y: 0.0
    z: -2.206233263015747
---
header: 
  seq: 4510
  stamp: 
    secs: 0
    nsecs:         0
  frame_id: "world"
twist: 
  linear: 
    x: 0.0
    y: 0.0
    z: 0.0
  angular: 
    x: 0.0
    y: 0.0
    z: -2.0321733951568604
---
header: 
  seq: 4937
  stamp: 
    secs: 0
    nsecs:         0
  frame_id: "world"
twist: 
  linear: 
    x: 0.0
    y: 0.0
    z: 0.0
  angular: 
    x: 0.0
    y: 0.0
    z: -2.206782579421997
---
header: 
  seq: 5367
  stamp: 
    secs: 0
    nsecs:         0
  frame_id: "world"
twist: 
  linear: 
    x: 0.0
    y: 0.0
    z: 0.0
  angular: 
    x: 0.0
    y: 0.0
    z: -2.207048177719116
---
header: 
  seq: 5792
  stamp: 
    secs: 0
    nsecs:         0
  frame_id: "world"
twist: 
  linear: 
    x: 0.0
    y: 0.0
    z: 0.0
  angular: 
    x: 0.0
    y: 0.0
    z: -2.207381010055542
---
header: 
  seq: 6217
  stamp: 
    secs: 0
    nsecs:         0
  frame_id: "world"
twist: 
  linear: 
    x: 0.0
    y: 0.0
    z: 0.0
  angular: 
    x: 0.0
    y: 0.0
    z: -2.20609974861145
---
header: 
  seq: 6648
  stamp: 
    secs: 0
    nsecs:         0
  frame_id: "world"
twist: 
  linear: 
    x: 0.0
    y: 0.0
    z: 0.0
  angular: 
    x: 0.0
    y: 0.0
    z: -2.2072551250457764
---
header: 
  seq: 7078
  stamp: 
    secs: 0
    nsecs:         0
  frame_id: "world"
twist: 
  linear: 
    x: 0.0
    y: 0.0
    z: 0.0
  angular: 
    x: 0.0
    y: 0.0
    z: -2.2071382999420166
---
header: 
  seq: 7504
  stamp: 
    secs: 0
    nsecs:         0
  frame_id: "world"
twist: 
  linear: 
    x: 0.0
    y: 0.0
    z: 0.0
  angular: 
    x: 0.0
    y: 0.0
    z: -2.206894636154175
---
header: 
  seq: 7935
  stamp: 
    secs: 0
    nsecs:         0
  frame_id: "world"
twist: 
  linear: 
    x: 0.0
    y: 0.0
    z: 0.0
  angular: 
    x: 0.0
    y: 0.0
    z: -2.2064998149871826
---
header: 
  seq: 8361
  stamp: 
    secs: 0
    nsecs:         0
  frame_id: "world"
twist: 
  linear: 
    x: 0.0
    y: 0.0
    z: 0.0
  angular: 
    x: 0.0
    y: 0.0
    z: -2.2070047855377197
---
header: 
  seq: 8789
  stamp: 
    secs: 0
    nsecs:         0
  frame_id: "world"
twist: 
  linear: 
    x: 0.0
    y: 0.0
    z: 0.0
  angular: 
    x: 0.0
    y: 0.0
    z: -2.206865072250366
---
header: 
  seq: 9214
  stamp: 
    secs: 0
    nsecs:         0
  frame_id: "world"
twist: 
  linear: 
    x: 0.0
    y: 0.0
    z: 0.0
  angular: 
    x: 0.0
    y: 0.0
    z: -2.2072041034698486
---
header: 
  seq: 9640
  stamp: 
    secs: 0
    nsecs:         0
  frame_id: "world"
twist: 
  linear: 
    x: 0.0
    y: 0.0
    z: 0.0
  angular: 
    x: 0.0
    y: 0.0
    z: -2.205335855484009
---
header: 
  seq: 10071
  stamp: 
    secs: 0
    nsecs:         0
  frame_id: "world"
twist: 
  linear: 
    x: 0.0
    y: 0.0
    z: 0.0
  angular: 
    x: 0.0
    y: 0.0
    z: -2.206418752670288
---
