header: 
  seq: 1942
  stamp: 
    secs: 0
    nsecs:         0
  frame_id: "world"
twist: 
  linear: 
    x: 0.0
    y: 0.0
    z: 0.0
  angular: 
    x: 0.0
    y: 0.0
    z: -1.856587529182434
---
header: 
  seq: 2365
  stamp: 
    secs: 0
    nsecs:         0
  frame_id: "world"
twist: 
  linear: 
    x: 0.0
    y: 0.0
    z: 0.0
  angular: 
    x: 0.0
    y: 0.0
    z: -1.8568427562713623
---
header: 
  seq: 2680
  stamp: 
    secs: 0
    nsecs:         0
  frame_id: "world"
twist: 
  linear: 
    x: 0.0
    y: 0.0
    z: 0.0
  angular: 
    x: 0.0
    y: 0.0
    z: -2.6305277347564697
---
header: 
  seq: 2962
  stamp: 
    secs: 0
    nsecs:         0
  frame_id: "world"
twist: 
  linear: 
    x: -0.28636953103381513
    y: 0.3624672075639363
    z: 0.0
  angular: 
    x: 0.0
    y: 0.0
    z: 2.2394447326660156
---
header: 
  seq: 3218
  stamp: 
    secs: 0
    nsecs:         0
  frame_id: "world"
twist: 
  linear: 
    x: 0.09186908456759002
    y: -0.9279845382475308
    z: 0.0
  angular: 
    x: 0.0
    y: 0.0
    z: -1.4721193313598633
---
header: 
  seq: 3475
  stamp: 
    secs: 0
    nsecs:         0
  frame_id: "world"
twist: 
  linear: 
    x: 0.38023039419130256
    y: 1.2809476810540803
    z: 0.0
  angular: 
    x: 0.0
    y: 0.0
    z: 1.2822455167770386
---
header: 
  seq: 3691
  stamp: 
    secs: 0
    nsecs:         0
  frame_id: "world"
twist: 
  linear: 
    x: 0.0
    y: 0.0
    z: 1.0
  angular: 
    x: 0.0
    y: 0.0
    z: 2.450513681120305
---
header: 
  seq: 4060
  stamp: 
    secs: 0
    nsecs:         0
  frame_id: "world"
twist: 
  linear: 
    x: 0.24282941182177525
    y: -0.23959172819776203
    z: 0.0
  angular: 
    x: 0.0
    y: 0.0
    z: -0.7786869406700134
---
header: 
  seq: 4285
  stamp: 
    secs: 0
    nsecs:         0
  frame_id: "world"
twist: 
  linear: 
    x: 0.0
    y: 0.0
    z: 1.0
  angular: 
    x: 0.0
    y: 0.0
    z: -0.27753878029901013
---
header: 
  seq: 4584
  stamp: 
    secs: 0
    nsecs:         0
  frame_id: "world"
twist: 
  linear: 
    x: -0.0698084728523663
    y: -0.42926940077804016
    z: 0.0
  angular: 
    x: 0.0
    y: 0.0
    z: -1.7320066690444946
---
header: 
  seq: 4830
  stamp: 
    secs: 0
    nsecs:         0
  frame_id: "world"
twist: 
  linear: 
    x: 0.07402296545236185
    y: 1.3174975749536504
    z: 0.0
  angular: 
    x: 0.0
    y: 0.0
    z: 1.5146706104278564
---
header: 
  seq: 5058
  stamp: 
    secs: 0
    nsecs:         0
  frame_id: "world"
twist: 
  linear: 
    x: 0.0
    y: 0.0
    z: 1.0
  angular: 
    x: 0.0
    y: 0.0
    z: 2.5560340246176083
---
header: 
  seq: 5324
  stamp: 
    secs: 0
    nsecs:         0
  frame_id: "world"
twist: 
  linear: 
    x: -0.43780293665255593
    y: -1.277039013670649
    z: 0.0
  angular: 
    x: 0.0
    y: 0.0
    z: -1.9010664224624634
---
header: 
  seq: 5537
  stamp: 
    secs: 0
    nsecs:         0
  frame_id: "world"
twist: 
  linear: 
    x: 0.08703319665071066
    y: -0.4611250721142223
    z: 0.0
  angular: 
    x: 0.0
    y: 0.0
    z: -1.3842498064041138
---
header: 
  seq: 5797
  stamp: 
    secs: 0
    nsecs:         0
  frame_id: "world"
twist: 
  linear: 
    x: 0.6969857448712709
    y: 1.1529520851382136
    z: 0.0
  angular: 
    x: 0.0
    y: 0.0
    z: 1.0270578861236572
---
header: 
  seq: 6018
  stamp: 
    secs: 0
    nsecs:         0
  frame_id: "world"
twist: 
  linear: 
    x: 0.0
    y: 0.0
    z: 0.0
  angular: 
    x: 0.0
    y: 0.0
    z: -2.6709980964660645
---
header: 
  seq: 6278
  stamp: 
    secs: 0
    nsecs:         0
  frame_id: "world"
twist: 
  linear: 
    x: -1.2233926786427562
    y: -0.5252253135148345
    z: 0.0
  angular: 
    x: 0.0
    y: 0.0
    z: -2.736069679260254
---
header: 
  seq: 6490
  stamp: 
    secs: 0
    nsecs:         0
  frame_id: "world"
twist: 
  linear: 
    x: -0.05522202365349191
    y: -0.3862422896922291
    z: 0.0
  angular: 
    x: 0.0
    y: 0.0
    z: -1.7128063440322876
---
header: 
  seq: 6744
  stamp: 
    secs: 0
    nsecs:         0
  frame_id: "world"
twist: 
  linear: 
    x: 0.5197126099370662
    y: 0.4148190230387914
    z: 0.0
  angular: 
    x: 0.0
    y: 0.0
    z: 0.6736240386962891
---
header: 
  seq: 7061
  stamp: 
    secs: 0
    nsecs:         0
  frame_id: "world"
twist: 
  linear: 
    x: -0.3395386406337097
    y: -0.1766562340015743
    z: 0.0
  angular: 
    x: 0.0
    y: 0.0
    z: -2.6618504524230957
---
header: 
  seq: 7304
  stamp: 
    secs: 0
    nsecs:         0
  frame_id: "world"
twist: 
  linear: 
    x: 0.043011799777592875
    y: -1.295804405689616
    z: 0.0
  angular: 
    x: 0.0
    y: 0.0
    z: -1.537615418434143
---
header: 
  seq: 7557
  stamp: 
    secs: 0
    nsecs:         0
  frame_id: "world"
twist: 
  linear: 
    x: 0.0
    y: 0.0
    z: 1.0
  angular: 
    x: 0.0
    y: 0.0
    z: -0.39922929528444284
---
header: 
  seq: 7892
  stamp: 
    secs: 0
    nsecs:         0
  frame_id: "world"
twist: 
  linear: 
    x: 0.8141354461501696
    y: 1.051564427654722
    z: 0.0
  angular: 
    x: 0.0
    y: 0.0
    z: 0.9119777679443359
---
header: 
  seq: 8108
  stamp: 
    secs: 0
    nsecs:         0
  frame_id: "world"
twist: 
  linear: 
    x: -0.0654956695382195
    y: 0.47776479506518593
    z: 0.0
  angular: 
    x: 0.0
    y: 0.0
    z: 1.7070348262786865
---
header: 
  seq: 8347
  stamp: 
    secs: 0
    nsecs:         0
  frame_id: "world"
twist: 
  linear: 
    x: -0.3387531760458668
    y: -0.21716988696155454
    z: 0.0
  angular: 
    x: 0.0
    y: 0.0
    z: -2.57150936126709
---
header: 
  seq: 8739
  stamp: 
    secs: 0
    nsecs:         0
  frame_id: "world"
twist: 
  linear: 
    x: 0.0
    y: 0.0
    z: 1.0
  angular: 
    x: 0.0
    y: 0.0
    z: -0.4161909841534964
---
header: 
  seq: 9037
  stamp: 
    secs: 0
    nsecs:         0
  frame_id: "world"
twist: 
  linear: 
    x: 1.327047190626422
    y: -0.24788260676472154
    z: 0.0
  angular: 
    x: 0.0
    y: 0.0
    z: -0.18466448783874512
---
header: 
  seq: 9265
  stamp: 
    secs: 0
    nsecs:         0
  frame_id: "world"
twist: 
  linear: 
    x: 0.05420543472917388
    y: 0.349511883213504
    z: 0.0
  angular: 
    x: 0.0
    y: 0.0
    z: 1.4169331789016724
---
header: 
  seq: 9519
  stamp: 
    secs: 0
    nsecs:         0
  frame_id: "world"
twist: 
  linear: 
    x: -1.340899724871551
    y: -0.024225102976389995
    z: 0.0
  angular: 
    x: 0.0
    y: 0.0
    z: -3.123528242111206
---
header: 
  seq: 9730
  stamp: 
    secs: 0
    nsecs:         0
  frame_id: "world"
twist: 
  linear: 
    x: -0.5045549222688743
    y: -0.30084585906474853
    z: 0.0
  angular: 
    x: 0.0
    y: 0.0
    z: -2.6039278507232666
---
header: 
  seq: 9981
  stamp: 
    secs: 0
    nsecs:         0
  frame_id: "world"
twist: 
  linear: 
    x: 1.3206751023146472
    y: -0.08637426699208083
    z: 0.0
  angular: 
    x: 0.0
    y: 0.0
    z: -0.06530863791704178
---
header: 
  seq: 10194
  stamp: 
    secs: 0
    nsecs:         0
  frame_id: "world"
twist: 
  linear: 
    x: 0.32271231416639995
    y: 0.3082322564532927
    z: 0.0
  angular: 
    x: 0.0
    y: 0.0
    z: 0.7624524831771851
---
header: 
  seq: 10436
  stamp: 
    secs: 0
    nsecs:         0
  frame_id: "world"
twist: 
  linear: 
    x: -1.3131043753597367
    y: 0.22501653468920427
    z: 0.0
  angular: 
    x: 0.0
    y: 0.0
    z: 2.97187876701355
---
header: 
  seq: 10650
  stamp: 
    secs: 0
    nsecs:         0
  frame_id: "world"
twist: 
  linear: 
    x: -0.15207737942021612
    y: -0.36102679787402064
    z: 0.0
  angular: 
    x: 0.0
    y: 0.0
    z: -1.9694743156433105
---
header: 
  seq: 10894
  stamp: 
    secs: 0
    nsecs:         0
  frame_id: "world"
twist: 
  linear: 
    x: 1.3223320683589788
    y: -0.14329394755861996
    z: 0.0
  angular: 
    x: 0.0
    y: 0.0
    z: -0.10794339329004288
---
header: 
  seq: 11168
  stamp: 
    secs: 0
    nsecs:         0
  frame_id: "world"
twist: 
  linear: 
    x: -1.3473176621625738
    y: 0.024148180058851162
    z: 0.0
  angular: 
    x: 0.0
    y: 0.0
    z: 3.123671293258667
---
header: 
  seq: 11383
  stamp: 
    secs: 0
    nsecs:         0
  frame_id: "world"
twist: 
  linear: 
    x: -0.6284614603939562
    y: -0.15023482671567515
    z: 0.0
  angular: 
    x: 0.0
    y: 0.0
    z: -2.906944513320923
---
header: 
  seq: 11625
  stamp: 
    secs: 0
    nsecs:         0
  frame_id: "world"
twist: 
  linear: 
    x: 1.1672771330517138
    y: -0.678206522623934
    z: 0.0
  angular: 
    x: 0.0
    y: 0.0
    z: -0.526343584060669
---
header: 
  seq: 11837
  stamp: 
    secs: 0
    nsecs:         0
  frame_id: "world"
twist: 
  linear: 
    x: 0.49139057290266164
    y: 0.08304276069292296
    z: 0.0
  angular: 
    x: 0.0
    y: 0.0
    z: 0.1674136072397232
---
header: 
  seq: 12090
  stamp: 
    secs: 0
    nsecs:         0
  frame_id: "world"
twist: 
  linear: 
    x: -1.0535436367428392
    y: 0.8293998650832693
    z: 0.0
  angular: 
    x: 0.0
    y: 0.0
    z: 2.4746758937835693
---
header: 
  seq: 12303
  stamp: 
    secs: 0
    nsecs:         0
  frame_id: "world"
twist: 
  linear: 
    x: -0.6433143636824483
    y: 0.21293369612203566
    z: 0.0
  angular: 
    x: 0.0
    y: 0.0
    z: 2.821948289871216
---
header: 
  seq: 12575
  stamp: 
    secs: 0
    nsecs:         0
  frame_id: "world"
twist: 
  linear: 
    x: 1.1934458911591885
    y: -0.6310206594945704
    z: 0.0
  angular: 
    x: 0.0
    y: 0.0
    z: -0.4863731265068054
---
header: 
  seq: 12789
  stamp: 
    secs: 0
    nsecs:         0
  frame_id: "world"
twist: 
  linear: 
    x: 0.7516525718193148
    y: -0.07900701497168451
    z: 0.0
  angular: 
    x: 0.0
    y: 0.0
    z: -0.10472641885280609
---
header: 
  seq: 13045
  stamp: 
    secs: 0
    nsecs:         0
  frame_id: "world"
twist: 
  linear: 
    x: -0.5857558594276694
    y: 0.5962304633242939
    z: 0.0
  angular: 
    x: 0.0
    y: 0.0
    z: 2.347332715988159
---
header: 
  seq: 13338
  stamp: 
    secs: 0
    nsecs:         0
  frame_id: "world"
twist: 
  linear: 
    x: 0.0
    y: 0.0
    z: 1.0
  angular: 
    x: 0.0
    y: 0.0
    z: -2.0338166291801447
---
header: 
  seq: 13629
  stamp: 
    secs: 0
    nsecs:         0
  frame_id: "world"
twist: 
  linear: 
    x: 1.0547571657630563
    y: -0.1696780231094306
    z: 0.0
  angular: 
    x: 0.0
    y: 0.0
    z: -0.15950262546539307
---
header: 
  seq: 13896
  stamp: 
    secs: 0
    nsecs:         0
  frame_id: "world"
twist: 
  linear: 
    x: -1.2915239675526735
    y: 0.20757758166705606
    z: 0.0
  angular: 
    x: 0.0
    y: 0.0
    z: 2.9822325706481934
---
header: 
  seq: 14109
  stamp: 
    secs: 0
    nsecs:         0
  frame_id: "world"
twist: 
  linear: 
    x: -0.6165585032330458
    y: -0.05055384688152743
    z: 0.0
  angular: 
    x: 0.0
    y: 0.0
    z: -3.059782028198242
---
header: 
  seq: 14379
  stamp: 
    secs: 0
    nsecs:         0
  frame_id: "world"
twist: 
  linear: 
    x: 0.5908793328529873
    y: -0.68191795702693
    z: 0.0
  angular: 
    x: 0.0
    y: 0.0
    z: -0.8568030595779419
---
header: 
  seq: 14672
  stamp: 
    secs: 0
    nsecs:         0
  frame_id: "world"
twist: 
  linear: 
    x: 0.03190801562841606
    y: 0.3758006637949714
    z: 0.0
  angular: 
    x: 0.0
    y: 0.0
    z: 1.4860923290252686
---
header: 
  seq: 15024
  stamp: 
    secs: 0
    nsecs:         0
  frame_id: "world"
twist: 
  linear: 
    x: 0.0
    y: 0.0
    z: 1.0
  angular: 
    x: 0.0
    y: 0.0
    z: -2.3332733858991683
---
header: 
  seq: 15324
  stamp: 
    secs: 0
    nsecs:         0
  frame_id: "world"
twist: 
  linear: 
    x: -0.4564344166746833
    y: 0.881822710333724
    z: 0.0
  angular: 
    x: 0.0
    y: 0.0
    z: 2.0484273433685303
---
header: 
  seq: 15585
  stamp: 
    secs: 0
    nsecs:         0
  frame_id: "world"
twist: 
  linear: 
    x: 0.3059701812213096
    y: -1.310054189351901
    z: 0.0
  angular: 
    x: 0.0
    y: 0.0
    z: -1.3413538932800293
---
header: 
  seq: 15798
  stamp: 
    secs: 0
    nsecs:         0
  frame_id: "world"
twist: 
  linear: 
    x: 0.4853366788466353
    y: -1.235092115325399
    z: 0.0
  angular: 
    x: 0.0
    y: 0.0
    z: -1.1963772773742676
---
header: 
  seq: 16044
  stamp: 
    secs: 0
    nsecs:         0
  frame_id: "world"
twist: 
  linear: 
    x: 0.0
    y: 0.0
    z: 1.0
  angular: 
    x: 0.0
    y: 0.0
    z: 0.012490898570159364
---
header: 
  seq: 16293
  stamp: 
    secs: 0
    nsecs:         0
  frame_id: "world"
twist: 
  linear: 
    x: -0.5770821576893552
    y: 1.2105176539170865
    z: 0.0
  angular: 
    x: 0.0
    y: 0.0
    z: 2.0156500339508057
---
header: 
  seq: 16527
  stamp: 
    secs: 0
    nsecs:         0
  frame_id: "world"
twist: 
  linear: 
    x: 0.0
    y: 0.0
    z: 1.0
  angular: 
    x: 0.0
    y: 0.0
    z: -3.4502307297348573
---
header: 
  seq: 16818
  stamp: 
    secs: 0
    nsecs:         0
  frame_id: "world"
twist: 
  linear: 
    x: 0.7348191053905482
    y: -1.1105324220711923
    z: 0.0
  angular: 
    x: 0.0
    y: 0.0
    z: -0.9862528443336487
---
header: 
  seq: 17033
  stamp: 
    secs: 0
    nsecs:         0
  frame_id: "world"
twist: 
  linear: 
    x: 0.0
    y: 0.0
    z: 0.0
  angular: 
    x: 0.0
    y: 0.0
    z: 0.0516020804643631
---
header: 
  seq: 17311
  stamp: 
    secs: 0
    nsecs:         0
  frame_id: "world"
twist: 
  linear: 
    x: -1.097773713029445
    y: 0.7739743498820841
    z: 0.0
  angular: 
    x: 0.0
    y: 0.0
    z: 2.527492046356201
---
header: 
  seq: 17524
  stamp: 
    secs: 0
    nsecs:         0
  frame_id: "world"
twist: 
  linear: 
    x: -0.6617851376935592
    y: 0.9238308989383113
    z: 0.0
  angular: 
    x: 0.0
    y: 0.0
    z: 2.192410469055176
---
header: 
  seq: 17777
  stamp: 
    secs: 0
    nsecs:         0
  frame_id: "world"
twist: 
  linear: 
    x: 0.0
    y: 0.0
    z: 0.0
  angular: 
    x: 0.0
    y: 0.0
    z: -1.1543400287628174
---
header: 
  seq: 18000
  stamp: 
    secs: 0
    nsecs:         0
  frame_id: "world"
twist: 
  linear: 
    x: 0.7196063182192962
    y: -1.1159383821287931
    z: 0.0
  angular: 
    x: 0.0
    y: 0.0
    z: -0.9980542063713074
---
header: 
  seq: 18233
  stamp: 
    secs: 0
    nsecs:         0
  frame_id: "world"
twist: 
  linear: 
    x: 0.28475124478106356
    y: 0.2538200596827638
    z: 0.0
  angular: 
    x: 0.0
    y: 0.0
    z: 0.7280293107032776
---
header: 
  seq: 18469
  stamp: 
    secs: 0
    nsecs:         0
  frame_id: "world"
twist: 
  linear: 
    x: -0.559212650603606
    y: 1.2077703730692755
    z: 0.0
  angular: 
    x: 0.0
    y: 0.0
    z: 2.0044186115264893
---
header: 
  seq: 18733
  stamp: 
    secs: 0
    nsecs:         0
  frame_id: "world"
twist: 
  linear: 
    x: -0.2959864762440018
    y: -1.3050976396594185
    z: 0.0
  angular: 
    x: 0.0
    y: 0.0
    z: -1.793816328048706
---
header: 
  seq: 18945
  stamp: 
    secs: 0
    nsecs:         0
  frame_id: "world"
twist: 
  linear: 
    x: 0.19274416376916215
    y: -0.601388610232508
    z: 0.0
  angular: 
    x: 0.0
    y: 0.0
    z: -1.26064133644104
---
header: 
  seq: 19215
  stamp: 
    secs: 0
    nsecs:         0
  frame_id: "world"
twist: 
  linear: 
    x: 0.0
    y: 0.0
    z: 0.0
  angular: 
    x: 0.0
    y: 0.0
    z: 1.0549898147583008
---
header: 
  seq: 19455
  stamp: 
    secs: 0
    nsecs:         0
  frame_id: "world"
twist: 
  linear: 
    x: 0.5963019565425285
    y: 1.1886295203898767
    z: 0.0
  angular: 
    x: 0.0
    y: 0.0
    z: 1.1058121919631958
---
header: 
  seq: 19678
  stamp: 
    secs: 0
    nsecs:         0
  frame_id: "world"
twist: 
  linear: 
    x: 0.0
    y: 0.0
    z: 1.0
  angular: 
    x: 0.0
    y: 0.0
    z: 2.386583871542535
---
header: 
  seq: 19934
  stamp: 
    secs: 0
    nsecs:         0
  frame_id: "world"
twist: 
  linear: 
    x: -0.33197484554996715
    y: -1.3025861397098417
    z: 0.0
  angular: 
    x: 0.0
    y: 0.0
    z: -1.8203423023223877
---
header: 
  seq: 20163
  stamp: 
    secs: 0
    nsecs:         0
  frame_id: "world"
twist: 
  linear: 
    x: 0.0
    y: 0.0
    z: 1.0
  angular: 
    x: 0.0
    y: 0.0
    z: 5.779075270528728
---
header: 
  seq: 20415
  stamp: 
    secs: 0
    nsecs:         0
  frame_id: "world"
twist: 
  linear: 
    x: 0.1958825752175603
    y: 1.2482513625466174
    z: 0.0
  angular: 
    x: 0.0
    y: 0.0
    z: 1.415140151977539
---
header: 
  seq: 20654
  stamp: 
    secs: 0
    nsecs:         0
  frame_id: "world"
twist: 
  linear: 
    x: -1.1741664117042874
    y: -0.6620370084912716
    z: 0.0
  angular: 
    x: 0.0
    y: 0.0
    z: -2.6281890869140625
---
header: 
  seq: 20868
  stamp: 
    secs: 0
    nsecs:         0
  frame_id: "world"
twist: 
  linear: 
    x: -0.6785739117593939
    y: -0.7555993408611663
    z: 0.0
  angular: 
    x: 0.0
    y: 0.0
    z: -2.3025388717651367
---
header: 
  seq: 21132
  stamp: 
    secs: 0
    nsecs:         0
  frame_id: "world"
twist: 
  linear: 
    x: 0.0
    y: 0.0
    z: 0.0
  angular: 
    x: 0.0
    y: 0.0
    z: 0.5870864391326904
---
header: 
  seq: 21360
  stamp: 
    secs: 0
    nsecs:         0
  frame_id: "world"
twist: 
  linear: 
    x: 1.167035471594711
    y: 0.6676821239096954
    z: 0.0
  angular: 
    x: 0.0
    y: 0.0
    z: 0.5196657180786133
---
header: 
  seq: 21586
  stamp: 
    secs: 0
    nsecs:         0
  frame_id: "world"
twist: 
  linear: 
    x: 0.0
    y: 0.0
    z: 0.0
  angular: 
    x: 0.0
    y: 0.0
    z: -2.458223581314087
---
header: 
  seq: 21836
  stamp: 
    secs: 0
    nsecs:         0
  frame_id: "world"
twist: 
  linear: 
    x: -0.39268403704922766
    y: -0.5882175999384583
    z: 0.0
  angular: 
    x: 0.0
    y: 0.0
    z: -2.159433126449585
---
header: 
  seq: 22094
  stamp: 
    secs: 0
    nsecs:         0
  frame_id: "world"
twist: 
  linear: 
    x: 0.9502409619830156
    y: 0.9191097037926705
    z: 0.0
  angular: 
    x: 0.0
    y: 0.0
    z: 0.7687462568283081
---
header: 
  seq: 22306
  stamp: 
    secs: 0
    nsecs:         0
  frame_id: "world"
twist: 
  linear: 
    x: 0.06498759146677896
    y: 0.3978030977102229
    z: 0.0
  angular: 
    x: 0.0
    y: 0.0
    z: 1.4088605642318726
---
header: 
  seq: 22559
  stamp: 
    secs: 0
    nsecs:         0
  frame_id: "world"
twist: 
  linear: 
    x: -1.0260118039267245
    y: -0.864358955267343
    z: 0.0
  angular: 
    x: 0.0
    y: 0.0
    z: -2.441500663757324
---
header: 
  seq: 22783
  stamp: 
    secs: 0
    nsecs:         0
  frame_id: "world"
twist: 
  linear: 
    x: 0.6785546124001924
    y: -0.25636274199248954
    z: 0.0
  angular: 
    x: 0.0
    y: 0.0
    z: -0.3612295091152191
---
header: 
  seq: 23037
  stamp: 
    secs: 0
    nsecs:         0
  frame_id: "world"
twist: 
  linear: 
    x: 1.0396154149308445
    y: 0.8221268516430311
    z: 0.0
  angular: 
    x: 0.0
    y: 0.0
    z: 0.6691053509712219
---
header: 
  seq: 23252
  stamp: 
    secs: 0
    nsecs:         0
  frame_id: "world"
twist: 
  linear: 
    x: 0.1277373970150906
    y: 0.4439831220882804
    z: 0.0
  angular: 
    x: 0.0
    y: 0.0
    z: 1.2906545400619507
---
header: 
  seq: 23502
  stamp: 
    secs: 0
    nsecs:         0
  frame_id: "world"
twist: 
  linear: 
    x: -1.2933920731890973
    y: -0.3116419637522723
    z: 0.0
  angular: 
    x: 0.0
    y: 0.0
    z: -2.9051501750946045
---
header: 
  seq: 23704
  stamp: 
    secs: 0
    nsecs:         0
  frame_id: "world"
twist: 
  linear: 
    x: -0.8024107615333568
    y: -0.4830112567954604
    z: 0.0
  angular: 
    x: 0.0
    y: 0.0
    z: -2.599740505218506
---
header: 
  seq: 24019
  stamp: 
    secs: 0
    nsecs:         0
  frame_id: "world"
twist: 
  linear: 
    x: 0.0
    y: 0.0
    z: 0.0
  angular: 
    x: 0.0
    y: 0.0
    z: -0.4308403730392456
---
header: 
  seq: 24445
  stamp: 
    secs: 0
    nsecs:         0
  frame_id: "world"
twist: 
  linear: 
    x: 0.0
    y: 0.0
    z: 0.0
  angular: 
    x: 0.0
    y: 0.0
    z: -0.2767506241798401
---
header: 
  seq: 24876
  stamp: 
    secs: 0
    nsecs:         0
  frame_id: "world"
twist: 
  linear: 
    x: 0.0
    y: 0.0
    z: 0.0
  angular: 
    x: 0.0
    y: 0.0
    z: 0.8714039325714111
---
header: 
  seq: 25143
  stamp: 
    secs: 0
    nsecs:         0
  frame_id: "world"
twist: 
  linear: 
    x: -0.924524027617763
    y: 0.9837457187599005
    z: 0.0
  angular: 
    x: 0.0
    y: 0.0
    z: 2.3251702785491943
---
header: 
  seq: 25357
  stamp: 
    secs: 0
    nsecs:         0
  frame_id: "world"
twist: 
  linear: 
    x: -0.9240313736949308
    y: 0.9838175656414876
    z: 0.0
  angular: 
    x: 0.0
    y: 0.0
    z: 2.3248677253723145
---
header: 
  seq: 25569
  stamp: 
    secs: 0
    nsecs:         0
  frame_id: "world"
twist: 
  linear: 
    x: -0.9764775775137241
    y: 0.9320372560861208
    z: 0.0
  angular: 
    x: 0.0
    y: 0.0
    z: 2.3794755935668945
---
                                                                                                                                                                                                                                       