header: 
  seq: 1812
  stamp: 
    secs: 0
    nsecs:         0
  frame_id: "world"
twist: 
  linear: 
    x: 0.26560335088625214
    y: -0.33276951326408366
    z: 0.0
  angular: 
    x: 0.0
    y: 0.0
    z: -0.8971783518791199
---
header: 
  seq: 2194
  stamp: 
    secs: 0
    nsecs:         0
  frame_id: "world"
twist: 
  linear: 
    x: 0.0
    y: 0.0
    z: 1.0
  angular: 
    x: 0.0
    y: 0.0
    z: 1.0054950813236052
---
header: 
  seq: 2475
  stamp: 
    secs: 0
    nsecs:         0
  frame_id: "world"
twist: 
  linear: 
    x: -1.0627908873022793
    y: 0.43952301339941
    z: 0.0
  angular: 
    x: 0.0
    y: 0.0
    z: 2.749455451965332
---
header: 
  seq: 2714
  stamp: 
    secs: 0
    nsecs:         0
  frame_id: "world"
twist: 
  linear: 
    x: 0.0
    y: 0.0
    z: 0.0
  angular: 
    x: 0.0
    y: 0.0
    z: 0.3694274425506592
---
header: 
  seq: 3081
  stamp: 
    secs: 0
    nsecs:         0
  frame_id: "world"
twist: 
  linear: 
    x: 1.2416720867880406
    y: -0.5009345046310034
    z: 0.0
  angular: 
    x: 0.0
    y: 0.0
    z: -0.3834643065929413
---
header: 
  seq: 3292
  stamp: 
    secs: 0
    nsecs:         0
  frame_id: "world"
twist: 
  linear: 
    x: 0.8868286392712652
    y: -0.031826338132518076
    z: 0.0
  angular: 
    x: 0.0
    y: 0.0
    z: -0.03587239235639572
---
header: 
  seq: 3541
  stamp: 
    secs: 0
    nsecs:         0
  frame_id: "world"
twist: 
  linear: 
    x: -1.266376814324752
    y: 0.40828906725815
    z: 0.0
  angular: 
    x: 0.0
    y: 0.0
    z: 2.829707622528076
---
header: 
  seq: 3752
  stamp: 
    secs: 0
    nsecs:         0
  frame_id: "world"
twist: 
  linear: 
    x: -0.5017664531180045
    y: -0.20406328411585942
    z: 0.0
  angular: 
    x: 0.0
    y: 0.0
    z: -2.7553324699401855
---
header: 
  seq: 4018
  stamp: 
    secs: 0
    nsecs:         0
  frame_id: "world"
twist: 
  linear: 
    x: 1.1910050386960709
    y: -0.03755745492708231
    z: 0.0
  angular: 
    x: 0.0
    y: 0.0
    z: -0.031523820012807846
---
header: 
  seq: 4269
  stamp: 
    secs: 0
    nsecs:         0
  frame_id: "world"
twist: 
  linear: 
    x: -1.2780585276916714
    y: 0.3805132650562499
    z: 0.0
  angular: 
    x: 0.0
    y: 0.0
    z: 2.852221965789795
---
header: 
  seq: 4481
  stamp: 
    secs: 0
    nsecs:         0
  frame_id: "world"
twist: 
  linear: 
    x: -0.8303115552166305
    y: -0.03986081616367489
    z: 0.0
  angular: 
    x: 0.0
    y: 0.0
    z: -3.0936224460601807
---
header: 
  seq: 4763
  stamp: 
    secs: 0
    nsecs:         0
  frame_id: "world"
twist: 
  linear: 
    x: 1.277036684976565
    y: 0.41974852064604634
    z: 0.0
  angular: 
    x: 0.0
    y: 0.0
    z: 0.31756529211997986
---
header: 
  seq: 4975
  stamp: 
    secs: 0
    nsecs:         0
  frame_id: "world"
twist: 
  linear: 
    x: 0.38755076270564287
    y: 0.4200710073470722
    z: 0.0
  angular: 
    x: 0.0
    y: 0.0
    z: 0.8256431221961975
---
header: 
  seq: 5225
  stamp: 
    secs: 0
    nsecs:         0
  frame_id: "world"
twist: 
  linear: 
    x: -1.2456395991281712
    y: -0.49441724302098394
    z: 0.0
  angular: 
    x: 0.0
    y: 0.0
    z: -2.7637455463409424
---
header: 
  seq: 5442
  stamp: 
    secs: 0
    nsecs:         0
  frame_id: "world"
twist: 
  linear: 
    x: 0.0
    y: 0.0
    z: 0.0
  angular: 
    x: 0.0
    y: 0.0
    z: 0.1835213452577591
---
header: 
  seq: 5685
  stamp: 
    secs: 0
    nsecs:         0
  frame_id: "world"
twist: 
  linear: 
    x: 0.40240832682953154
    y: 0.17980139053589017
    z: 0.0
  angular: 
    x: 0.0
    y: 0.0
    z: 0.42020073533058167
---
header: 
  seq: 6022
  stamp: 
    secs: 0
    nsecs:         0
  frame_id: "world"
twist: 
  linear: 
    x: 0.0
    y: 0.0
    z: 1.0
  angular: 
    x: 0.0
    y: 0.0
    z: 2.8461365619538723
---
header: 
  seq: 6324
  stamp: 
    secs: 0
    nsecs:         0
  frame_id: "world"
twist: 
  linear: 
    x: -1.2983699751552755
    y: -0.3016621153079219
    z: 0.0
  angular: 
    x: 0.0
    y: 0.0
    z: -2.913303852081299
---
header: 
  seq: 6538
  stamp: 
    secs: 0
    nsecs:         0
  frame_id: "world"
twist: 
  linear: 
    x: -0.32536177164138536
    y: -0.38331987753957314
    z: 0.0
  angular: 
    x: 0.0
    y: 0.0
    z: -2.2745931148529053
---
header: 
  seq: 6936
  stamp: 
    secs: 0
    nsecs:         0
  frame_id: "world"
twist: 
  linear: 
    x: 0.0
    y: 0.0
    z: 0.0
  angular: 
    x: 0.0
    y: 0.0
    z: -0.10853371769189835
---
header: 
  seq: 7295
  stamp: 
    secs: 0
    nsecs:         0
  frame_id: "world"
twist: 
  linear: 
    x: 1.1057196957742395
    y: 0.7745218047577066
    z: 0.0
  angular: 
    x: 0.0
    y: 0.0
    z: 0.6110403537750244
---
header: 
  seq: 7509
  stamp: 
    secs: 0
    nsecs:         0
  frame_id: "world"
twist: 
  linear: 
    x: 0.9651731792544873
    y: 0.93913505968458
    z: 0.0
  angular: 
    x: 0.0
    y: 0.0
    z: 0.7717257142066956
---
header: 
  seq: 7723
  stamp: 
    secs: 0
    nsecs:         0
  frame_id: "world"
twist: 
  linear: 
    x: 0.9573948699232104
    y: 0.9517852472979098
    z: 0.0
  angular: 
    x: 0.0
    y: 0.0
    z: 0.7824599742889404
---
header: 
  seq: 7936
  stamp: 
    secs: 0
    nsecs:         0
  frame_id: "world"
twist: 
  linear: 
    x: 0.9570992133613321
    y: 0.9504124329977841
    z: 0.0
  angular: 
    x: 0.0
    y: 0.0
    z: 0.7818926572799683
---
header: 
  seq: 8151
  stamp: 
    secs: 0
    nsecs:         0
  frame_id: "world"
twist: 
  linear: 
    x: 1.3452401208408553
    y: 0.10885010599449982
    z: 0.0
  angular: 
    x: 0.0
    y: 0.0
    z: 0.08073905855417252
---
header: 
  seq: 8365
  stamp: 
    secs: 0
    nsecs:         0
  frame_id: "world"
twist: 
  linear: 
    x: 0.7806802045576163
    y: 1.1008567511260288
    z: 0.0
  angular: 
    x: 0.0
    y: 0.0
    z: 0.9539511799812317
---
header: 
  seq: 8615
  stamp: 
    secs: 0
    nsecs:         0
  frame_id: "world"
twist: 
  linear: 
    x: 0.28704694197070757
    y: 1.0455947184625756
    z: 0.0
  angular: 
    x: 0.0
    y: 0.0
    z: 1.3028672933578491
---
header: 
  seq: 8827
  stamp: 
    secs: 0
    nsecs:         0
  frame_id: "world"
twist: 
  linear: 
    x: 0.2869190070556493
    y: 1.0489960399079488
    z: 0.0
  angular: 
    x: 0.0
    y: 0.0
    z: 1.3038086891174316
---
header: 
  seq: 9039
  stamp: 
    secs: 0
    nsecs:         0
  frame_id: "world"
twist: 
  linear: 
    x: 0.2856043647707133
    y: 1.0509301380069809
    z: 0.0
  angular: 
    x: 0.0
    y: 0.0
    z: 1.3054416179656982
---
header: 
  seq: 9250
  stamp: 
    secs: 0
    nsecs:         0
  frame_id: "world"
twist: 
  linear: 
    x: 0.35355090867377
    y: 1.3026067028882653
    z: 0.0
  angular: 
    x: 0.0
    y: 0.0
    z: 1.3057633638381958
---
header: 
  seq: 9463
  stamp: 
    secs: 0
    nsecs:         0
  frame_id: "world"
twist: 
  linear: 
    x: -0.10284487234997029
    y: 1.3458140742982974
    z: 0.0
  angular: 
    x: 0.0
    y: 0.0
    z: 1.6470664739608765
---
header: 
  seq: 9675
  stamp: 
    secs: 0
    nsecs:         0
  frame_id: "world"
twist: 
  linear: 
    x: 0.36286335257503377
    y: 1.2955360033341154
    z: 0.0
  angular: 
    x: 0.0
    y: 0.0
    z: 1.2977066040039062
---
header: 
  seq: 9886
  stamp: 
    secs: 0
    nsecs:         0
  frame_id: "world"
twist: 
  linear: 
    x: -0.7621486729619512
    y: 1.1123263716414646
    z: 0.0
  angular: 
    x: 0.0
    y: 0.0
    z: 2.1715095043182373
---
header: 
  seq: 10183
  stamp: 
    secs: 0
    nsecs:         0
  frame_id: "world"
twist: 
  linear: 
    x: 0.0
    y: 0.0
    z: 0.0
  angular: 
    x: 0.0
    y: 0.0
    z: -0.8050735592842102
---
header: 
  seq: 10608
  stamp: 
    secs: 0
    nsecs:         0
  frame_id: "world"
twist: 
  linear: 
    x: 0.0
    y: 0.0
    z: 0.0
  angular: 
    x: 0.0
    y: 0.0
    z: -1.8402824401855469
---
header: 
  seq: 11033
  stamp: 
    secs: 0
    nsecs:         0
  frame_id: "world"
twist: 
  linear: 
    x: 0.0
    y: 0.0
    z: 0.0
  angular: 
    x: 0.0
    y: 0.0
    z: -0.7957373857498169
---
header: 
  seq: 11288
  stamp: 
    secs: 0
    nsecs:         0
  frame_id: "world"
twist: 
  linear: 
    x: -1.2985844833404079
    y: 0.3663684597740363
    z: 0.0
  angular: 
    x: 0.0
    y: 0.0
    z: 2.8666107654571533
---
header: 
  seq: 11499
  stamp: 
    secs: 0
    nsecs:         0
  frame_id: "world"
twist: 
  linear: 
    x: -1.2976142044756538
    y: 0.3724211792580975
    z: 0.0
  angular: 
    x: 0.0
    y: 0.0
    z: 2.862100601196289
---
header: 
  seq: 11809
  stamp: 
    secs: 0
    nsecs:         0
  frame_id: "world"
twist: 
  linear: 
    x: 0.0
    y: 0.0
    z: 0.0
  angular: 
    x: 0.0
    y: 0.0
    z: -0.8039871454238892
---
header: 
  seq: 12235
  stamp: 
    secs: 0
    nsecs:         0
  frame_id: "world"
twist: 
  linear: 
    x: 0.0
    y: 0.0
    z: 0.0
  angular: 
    x: 0.0
    y: 0.0
    z: -0.7952823638916016
---
header: 
  seq: 12634
  stamp: 
    secs: 0
    nsecs:         0
  frame_id: "world"
twist: 
  linear: 
    x: -1.2985658332104353
    y: 0.3689114349771771
    z: 0.0
  angular: 
    x: 0.0
    y: 0.0
    z: 2.8647940158843994
---
header: 
  seq: 12846
  stamp: 
    secs: 0
    nsecs:         0
  frame_id: "world"
twist: 
  linear: 
    x: -1.2969533669179114
    y: 0.372459809258728
    z: 0.0
  angular: 
    x: 0.0
    y: 0.0
    z: 2.861937999725342
---
header: 
  seq: 13056
  stamp: 
    secs: 0
    nsecs:         0
  frame_id: "world"
twist: 
  linear: 
    x: -1.2975234619862817
    y: 0.37107973255742654
    z: 0.0
  angular: 
    x: 0.0
    y: 0.0
    z: 2.863037347793579
---
header: 
  seq: 13425
  stamp: 
    secs: 0
    nsecs:         0
  frame_id: "world"
twist: 
  linear: 
    x: 0.0
    y: 0.0
    z: 0.0
  angular: 
    x: 0.0
    y: 0.0
    z: -0.7988556027412415
---
header: 
  seq: 13849
  stamp: 
    secs: 0
    nsecs:         0
  frame_id: "world"
twist: 
  linear: 
    x: 0.0
    y: 0.0
    z: 0.0
  angular: 
    x: 0.0
    y: 0.0
    z: -0.8035989999771118
---
header: 
  seq: 14190
  stamp: 
    secs: 0
    nsecs:         0
  frame_id: "world"
twist: 
  linear: 
    x: -1.2989608972888476
    y: 0.3571515121308976
    z: 0.0
  angular: 
    x: 0.0
    y: 0.0
    z: 2.8732712268829346
---
header: 
  seq: 14401
  stamp: 
    secs: 0
    nsecs:         0
  frame_id: "world"
twist: 
  linear: 
    x: -1.2906653941512034
    y: 0.38365216628803317
    z: 0.0
  angular: 
    x: 0.0
    y: 0.0
    z: 2.8526594638824463
---
header: 
  seq: 14617
  stamp: 
    secs: 0
    nsecs:         0
  frame_id: "world"
twist: 
  linear: 
    x: 0.0
    y: 0.0
    z: 0.0
  angular: 
    x: 0.0
    y: 0.0
    z: -0.7982030510902405
---
header: 
  seq: 15039
  stamp: 
    secs: 0
    nsecs:         0
  frame_id: "world"
twist: 
  linear: 
    x: 0.0
    y: 0.0
    z: 0.0
  angular: 
    x: 0.0
    y: 0.0
    z: -0.8001337647438049
---
header: 
  seq: 15460
  stamp: 
    secs: 0
    nsecs:         0
  frame_id: "world"
twist: 
  linear: 
    x: 0.0
    y: 0.0
    z: 0.0
  angular: 
    x: 0.0
    y: 0.0
    z: -0.8017416596412659
---
header: 
  seq: 15748
  stamp: 
    secs: 0
    nsecs:         0
  frame_id: "world"
twist: 
  linear: 
    x: -1.2977817221232733
    y: 0.3715761567071353
    z: 0.0
  angular: 
    x: 0.0
    y: 0.0
    z: 2.862736463546753
---
header: 
  seq: 15961
  stamp: 
    secs: 0
    nsecs:         0
  frame_id: "world"
twist: 
  linear: 
    x: -1.2987221043859698
    y: 0.36853913431760676
    z: 0.0
  angular: 
    x: 0.0
    y: 0.0
    z: 2.865090847015381
---
header: 
  seq: 16237
  stamp: 
    secs: 0
    nsecs:         0
  frame_id: "world"
twist: 
  linear: 
    x: 0.0
    y: 0.0
    z: 0.0
  angular: 
    x: 0.0
    y: 0.0
    z: -0.8008267879486084
---
header: 
  seq: 16659
  stamp: 
    secs: 0
    nsecs:         0
  frame_id: "world"
twist: 
  linear: 
    x: 0.0
    y: 0.0
    z: 0.0
  angular: 
    x: 0.0
    y: 0.0
    z: -0.7991704940795898
---
header: 
  seq: 17082
  stamp: 
    secs: 0
    nsecs:         0
  frame_id: "world"
twist: 
  linear: 
    x: 0.0
    y: 0.0
    z: 0.0
  angular: 
    x: 0.0
    y: 0.0
    z: -0.7985216379165649
---
header: 
  seq: 17308
  stamp: 
    secs: 0
    nsecs:         0
  frame_id: "world"
twist: 
  linear: 
    x: -1.2933211775692226
    y: 0.3793088235817142
    z: 0.0
  angular: 
    x: 0.0
    y: 0.0
    z: 2.8563098907470703
---
header: 
  seq: 17519
  stamp: 
    secs: 0
    nsecs:         0
  frame_id: "world"
twist: 
  linear: 
    x: -1.2989670728130818
    y: 0.36743672216573825
    z: 0.0
  angular: 
    x: 0.0
    y: 0.0
    z: 2.8659260272979736
---
header: 
  seq: 17859
  stamp: 
    secs: 0
    nsecs:         0
  frame_id: "world"
twist: 
  linear: 
    x: 0.0
    y: 0.0
    z: 0.0
  angular: 
    x: 0.0
    y: 0.0
    z: -0.7999774217605591
---
header: 
  seq: 18283
  stamp: 
    secs: 0
    nsecs:         0
  frame_id: "world"
twist: 
  linear: 
    x: 0.0
    y: 0.0
    z: 0.0
  angular: 
    x: 0.0
    y: 0.0
    z: -0.8541322350502014
---
header: 
  seq: 18706
  stamp: 
    secs: 0
    nsecs:         0
  frame_id: "world"
twist: 
  linear: 
    x: 0.0
    y: 0.0
    z: 0.0
  angular: 
    x: 0.0
    y: 0.0
    z: -0.8663784265518188
---
header: 
  seq: 19130
  stamp: 
    secs: 0
    nsecs:         0
  frame_id: "world"
twist: 
  linear: 
    x: 0.0
    y: 0.0
    z: 0.0
  angular: 
    x: 0.0
    y: 0.0
    z: -0.867400050163269
---
header: 
  seq: 19561
  stamp: 
    secs: 0
    nsecs:         0
  frame_id: "world"
twist: 
  linear: 
    x: 0.0
    y: 0.0
    z: 0.0
  angular: 
    x: 0.0
    y: 0.0
    z: -0.8662565350532532
---
header: 
  seq: 19984
  stamp: 
    secs: 0
    nsecs:         0
  frame_id: "world"
twist: 
  linear: 
    x: 0.0
    y: 0.0
    z: 0.0
  angular: 
    x: 0.0
    y: 0.0
    z: -0.7993037700653076
---
header: 
  seq: 20410
  stamp: 
    secs: 0
    nsecs:         0
  frame_id: "world"
twist: 
  linear: 
    x: 0.0
    y: 0.0
    z: 0.0
  angular: 
    x: 0.0
    y: 0.0
    z: -0.80327969789505
---
header: 
  seq: 20747
  stamp: 
    secs: 0
    nsecs:         0
  frame_id: "world"
twist: 
  linear: 
    x: -1.2990132596978003
    y: 0.3667099968698909
    z: 0.0
  angular: 
    x: 0.0
    y: 0.0
    z: 2.8664534091949463
---
header: 
  seq: 20977
  stamp: 
    secs: 0
    nsecs:         0
  frame_id: "world"
twist: 
  linear: 
    x: -1.29966103562789
    y: 0.36521415112916084
    z: 0.0
  angular: 
    x: 0.0
    y: 0.0
    z: 2.867650270462036
---
header: 
  seq: 21249
  stamp: 
    secs: 0
    nsecs:         0
  frame_id: "world"
twist: 
  linear: 
    x: 0.0
    y: 0.0
    z: 0.0
  angular: 
    x: 0.0
    y: 0.0
    z: -0.8003001809120178
---
header: 
  seq: 21672
  stamp: 
    secs: 0
    nsecs:         0
  frame_id: "world"
twist: 
  linear: 
    x: 0.0
    y: 0.0
    z: 0.0
  angular: 
    x: 0.0
    y: 0.0
    z: -1.8437076807022095
---
header: 
  seq: 22098
  stamp: 
    secs: 0
    nsecs:         0
  frame_id: "world"
twist: 
  linear: 
    x: 0.0
    y: 0.0
    z: 0.0
  angular: 
    x: 0.0
    y: 0.0
    z: -1.8456552028656006
---
header: 
  seq: 22351
  stamp: 
    secs: 0
    nsecs:         0
  frame_id: "world"
twist: 
  linear: 
    x: -1.1367555022349929
    y: 0.3214202936034271
    z: 0.0
  angular: 
    x: 0.0
    y: 0.0
    z: 2.8660335540771484
---
header: 
  seq: 22570
  stamp: 
    secs: 0
    nsecs:         0
  frame_id: "world"
twist: 
  linear: 
    x: -1.299259304464795
    y: 0.36615242970415
    z: 0.0
  angular: 
    x: 0.0
    y: 0.0
    z: 2.8669004440307617
---
header: 
  seq: 22903
  stamp: 
    secs: 0
    nsecs:         0
  frame_id: "world"
twist: 
  linear: 
    x: 0.0
    y: 0.0
    z: 0.0
  angular: 
    x: 0.0
    y: 0.0
    z: -1.8472611904144287
---
header: 
  seq: 23329
  stamp: 
    secs: 0
    nsecs:         0
  frame_id: "world"
twist: 
  linear: 
    x: 0.0
    y: 0.0
    z: 0.0
  angular: 
    x: 0.0
    y: 0.0
    z: -1.8474390506744385
---
