header: 
  seq: 1885
  stamp: 
    secs: 0
    nsecs:         0
  frame_id: "world"
twist: 
  linear: 
    x: 0.28404763288218393
    y: 1.3038058667408345
    z: 0.0
  angular: 
    x: 0.0
    y: 0.0
    z: 1.3562877178192139
---
header: 
  seq: 2099
  stamp: 
    secs: 0
    nsecs:         0
  frame_id: "world"
twist: 
  linear: 
    x: 0.26407326735513553
    y: 0.2745255357683569
    z: 0.0
  angular: 
    x: 0.0
    y: 0.0
    z: 0.8048021197319031
---
header: 
  seq: 2516
  stamp: 
    secs: 0
    nsecs:         0
  frame_id: "world"
twist: 
  linear: 
    x: 0.0
    y: 0.0
    z: 1.0
  angular: 
    x: 0.0
    y: 0.0
    z: 1.4290090447970893
---
header: 
  seq: 2944
  stamp: 
    secs: 0
    nsecs:         0
  frame_id: "world"
twist: 
  linear: 
    x: 0.0
    y: 0.0
    z: 1.0
  angular: 
    x: 0.0
    y: 0.0
    z: 1.4292684479063902
---
header: 
  seq: 3366
  stamp: 
    secs: 0
    nsecs:         0
  frame_id: "world"
twist: 
  linear: 
    x: 0.0
    y: 0.0
    z: 1.0
  angular: 
    x: 0.0
    y: 0.0
    z: 1.429013374681926
---
header: 
  seq: 3788
  stamp: 
    secs: 0
    nsecs:         0
  frame_id: "world"
twist: 
  linear: 
    x: 0.0
    y: 0.0
    z: 1.0
  angular: 
    x: 0.0
    y: 0.0
    z: 1.4289925134797274
---
header: 
  seq: 4215
  stamp: 
    secs: 0
    nsecs:         0
  frame_id: "world"
twist: 
  linear: 
    x: 0.0
    y: 0.0
    z: 1.0
  angular: 
    x: 0.0
    y: 0.0
    z: 1.4287568254593386
---
header: 
  seq: 4639
  stamp: 
    secs: 0
    nsecs:         0
  frame_id: "world"
twist: 
  linear: 
    x: 0.0
    y: 0.0
    z: 1.0
  angular: 
    x: 0.0
    y: 0.0
    z: 1.4291815869992681
---
header: 
  seq: 5060
  stamp: 
    secs: 0
    nsecs:         0
  frame_id: "world"
twist: 
  linear: 
    x: 0.0
    y: 0.0
    z: 1.0
  angular: 
    x: 0.0
    y: 0.0
    z: 1.4291077354296946
---
header: 
  seq: 5483
  stamp: 
    secs: 0
    nsecs:         0
  frame_id: "world"
twist: 
  linear: 
    x: 0.0
    y: 0.0
    z: 1.0
  angular: 
    x: 0.0
    y: 0.0
    z: 1.4292149282515236
---
header: 
  seq: 5905
  stamp: 
    secs: 0
    nsecs:         0
  frame_id: "world"
twist: 
  linear: 
    x: 0.0
    y: 0.0
    z: 1.0
  angular: 
    x: 0.0
    y: 0.0
    z: 1.4291778789330114
---
header: 
  seq: 6328
  stamp: 
    secs: 0
    nsecs:         0
  frame_id: "world"
twist: 
  linear: 
    x: 0.0
    y: 0.0
    z: 1.0
  angular: 
    x: 0.0
    y: 0.0
    z: 1.4289141929715745
---
header: 
  seq: 6750
  stamp: 
    secs: 0
    nsecs:         0
  frame_id: "world"
twist: 
  linear: 
    x: 0.0
    y: 0.0
    z: 1.0
  angular: 
    x: 0.0
    y: 0.0
    z: 1.4289301907153786
---
header: 
  seq: 7172
  stamp: 
    secs: 0
    nsecs:         0
  frame_id: "world"
twist: 
  linear: 
    x: 0.0
    y: 0.0
    z: 1.0
  angular: 
    x: 0.0
    y: 0.0
    z: 1.428905202471078
---
header: 
  seq: 7593
  stamp: 
    secs: 0
    nsecs:         0
  frame_id: "world"
twist: 
  linear: 
    x: 0.0
    y: 0.0
    z: 1.0
  angular: 
    x: 0.0
    y: 0.0
    z: 1.4290789836512392
---
header: 
  seq: 8016
  stamp: 
    secs: 0
    nsecs:         0
  frame_id: "world"
twist: 
  linear: 
    x: 0.0
    y: 0.0
    z: 1.0
  angular: 
    x: 0.0
    y: 0.0
    z: 1.4291869521006708
---
header: 
  seq: 8441
  stamp: 
    secs: 0
    nsecs:         0
  frame_id: "world"
twist: 
  linear: 
    x: 0.0
    y: 0.0
    z: 1.0
  angular: 
    x: 0.0
    y: 0.0
    z: 1.4288981088304062
---
header: 
  seq: 8864
  stamp: 
    secs: 0
    nsecs:         0
  frame_id: "world"
twist: 
  linear: 
    x: 0.0
    y: 0.0
    z: 1.0
  angular: 
    x: 0.0
    y: 0.0
    z: 1.428837858070052
---
header: 
  seq: 9292
  stamp: 
    secs: 0
    nsecs:         0
  frame_id: "world"
twist: 
  linear: 
    x: 0.0
    y: 0.0
    z: 1.0
  angular: 
    x: 0.0
    y: 0.0
    z: 1.4285171387536313
---
header: 
  seq: 9713
  stamp: 
    secs: 0
    nsecs:         0
  frame_id: "world"
twist: 
  linear: 
    x: 0.0
    y: 0.0
    z: 1.0
  angular: 
    x: 0.0
    y: 0.0
    z: 1.4284793540971568
---
header: 
  seq: 10141
  stamp: 
    secs: 0
    nsecs:         0
  frame_id: "world"
twist: 
  linear: 
    x: 0.0
    y: 0.0
    z: 1.0
  angular: 
    x: 0.0
    y: 0.0
    z: 1.428577160677878
---
header: 
  seq: 10570
  stamp: 
    secs: 0
    nsecs:         0
  frame_id: "world"
twist: 
  linear: 
    x: 0.0
    y: 0.0
    z: 1.0
  angular: 
    x: 0.0
    y: 0.0
    z: 1.4281587773306124
---
header: 
  seq: 10996
  stamp: 
    secs: 0
    nsecs:         0
  frame_id: "world"
twist: 
  linear: 
    x: 0.0
    y: 0.0
    z: 1.0
  angular: 
    x: 0.0
    y: 0.0
    z: 1.4281058192317202
---
header: 
  seq: 11422
  stamp: 
    secs: 0
    nsecs:         0
  frame_id: "world"
twist: 
  linear: 
    x: 0.0
    y: 0.0
    z: 1.0
  angular: 
    x: 0.0
    y: 0.0
    z: 1.4278932004099878
---
header: 
  seq: 11850
  stamp: 
    secs: 0
    nsecs:         0
  frame_id: "world"
twist: 
  linear: 
    x: 0.0
    y: 0.0
    z: 1.0
  angular: 
    x: 0.0
    y: 0.0
    z: 1.4279714490356892
---
header: 
  seq: 12277
  stamp: 
    secs: 0
    nsecs:         0
  frame_id: "world"
twist: 
  linear: 
    x: 0.0
    y: 0.0
    z: 1.0
  angular: 
    x: 0.0
    y: 0.0
    z: 1.4281411340826393
---
header: 
  seq: 12700
  stamp: 
    secs: 0
    nsecs:         0
  frame_id: "world"
twist: 
  linear: 
    x: 0.0
    y: 0.0
    z: 1.0
  angular: 
    x: 0.0
    y: 0.0
    z: 1.42806525579613
---
header: 
  seq: 13124
  stamp: 
    secs: 0
    nsecs:         0
  frame_id: "world"
twist: 
  linear: 
    x: 0.0
    y: 0.0
    z: 1.0
  angular: 
    x: 0.0
    y: 0.0
    z: 1.4283185065124897
---
header: 
  seq: 13547
  stamp: 
    secs: 0
    nsecs:         0
  frame_id: "world"
twist: 
  linear: 
    x: 0.0
    y: 0.0
    z: 1.0
  angular: 
    x: 0.0
    y: 0.0
    z: 1.4278718341810972
---
header: 
  seq: 13972
  stamp: 
    secs: 0
    nsecs:         0
  frame_id: "world"
twist: 
  linear: 
    x: 0.0
    y: 0.0
    z: 1.0
  angular: 
    x: 0.0
    y: 0.0
    z: 1.4278540512513724
---
header: 
  seq: 14397
  stamp: 
    secs: 0
    nsecs:         0
  frame_id: "world"
twist: 
  linear: 
    x: 0.0
    y: 0.0
    z: 1.0
  angular: 
    x: 0.0
    y: 0.0
    z: 1.427903802220382
---
header: 
  seq: 14821
  stamp: 
    secs: 0
    nsecs:         0
  frame_id: "world"
twist: 
  linear: 
    x: 0.0
    y: 0.0
    z: 1.0
  angular: 
    x: 0.0
    y: 0.0
    z: 1.427353751447809
---
header: 
  seq: 15242
  stamp: 
    secs: 0
    nsecs:         0
  frame_id: "world"
twist: 
  linear: 
    x: 0.0
    y: 0.0
    z: 1.0
  angular: 
    x: 0.0
    y: 0.0
    z: 1.4276674397449234
---
header: 
  seq: 15664
  stamp: 
    secs: 0
    nsecs:         0
  frame_id: "world"
twist: 
  linear: 
    x: 0.0
    y: 0.0
    z: 1.0
  angular: 
    x: 0.0
    y: 0.0
    z: 1.427522042290006
---
header: 
  seq: 16087
  stamp: 
    secs: 0
    nsecs:         0
  frame_id: "world"
twist: 
  linear: 
    x: 0.0
    y: 0.0
    z: 1.0
  angular: 
    x: 0.0
    y: 0.0
    z: 1.4301619342800787
---
header: 
  seq: 16474
  stamp: 
    secs: 0
    nsecs:         0
  frame_id: "world"
twist: 
  linear: 
    x: 0.0
    y: 0.0
    z: 1.0
  angular: 
    x: 0.0
    y: 0.0
    z: 2.393070897589031
---
header: 
  seq: 16854
  stamp: 
    secs: 0
    nsecs:         0
  frame_id: "world"
twist: 
  linear: 
    x: 0.0
    y: 0.0
    z: 1.0
  angular: 
    x: 0.0
    y: 0.0
    z: -1.7684630869607385
---
header: 
  seq: 17178
  stamp: 
    secs: 0
    nsecs:         0
  frame_id: "world"
twist: 
  linear: 
    x: -0.18198899531346566
    y: 0.3629864799696753
    z: 0.0
  angular: 
    x: 0.0
    y: 0.0
    z: 2.035536050796509
---
header: 
  seq: 17540
  stamp: 
    secs: 0
    nsecs:         0
  frame_id: "world"
twist: 
  linear: 
    x: 0.0
    y: 0.0
    z: 1.0
  angular: 
    x: 0.0
    y: 0.0
    z: -2.4523150226152697
---
header: 
  seq: 17884
  stamp: 
    secs: 0
    nsecs:         0
  frame_id: "world"
twist: 
  linear: 
    x: 0.3704893753097442
    y: -0.05511357779223231
    z: 0.0
  angular: 
    x: 0.0
    y: 0.0
    z: -0.14767590165138245
---
header: 
  seq: 18241
  stamp: 
    secs: 0
    nsecs:         0
  frame_id: "world"
twist: 
  linear: 
    x: 0.0
    y: 0.0
    z: 1.0
  angular: 
    x: 0.0
    y: 0.0
    z: -3.576362786531971
---
header: 
  seq: 18634
  stamp: 
    secs: 0
    nsecs:         0
  frame_id: "world"
twist: 
  linear: 
    x: 0.006343901842425689
    y: -0.38554544305760285
    z: 0.0
  angular: 
    x: 0.0
    y: 0.0
    z: -1.5543434619903564
---
header: 
  seq: 18953
  stamp: 
    secs: 0
    nsecs:         0
  frame_id: "world"
twist: 
  linear: 
    x: 0.0449382484971289
    y: 0.3999749576626843
    z: 0.0
  angular: 
    x: 0.0
    y: 0.0
    z: 1.458912968635559
---
header: 
  seq: 19322
  stamp: 
    secs: 0
    nsecs:         0
  frame_id: "world"
twist: 
  linear: 
    x: 0.0
    y: 0.0
    z: 1.0
  angular: 
    x: 0.0
    y: 0.0
    z: -2.900120630062386
---
header: 
  seq: 19639
  stamp: 
    secs: 0
    nsecs:         0
  frame_id: "world"
twist: 
  linear: 
    x: 0.2632432817261544
    y: -0.3390570072274515
    z: 0.0
  angular: 
    x: 0.0
    y: 0.0
    z: -0.9106132388114929
---
header: 
  seq: 19940
  stamp: 
    secs: 0
    nsecs:         0
  frame_id: "world"
twist: 
  linear: 
    x: -0.0710544366084908
    y: 0.36125169927683104
    z: 0.0
  angular: 
    x: 0.0
    y: 0.0
    z: 1.7650067806243896
---
header: 
  seq: 20351
  stamp: 
    secs: 0
    nsecs:         0
  frame_id: "world"
twist: 
  linear: 
    x: -0.2321271294092346
    y: -0.2538535490122278
    z: 0.0
  angular: 
    x: 0.0
    y: 0.0
    z: -2.3115179538726807
---
header: 
  seq: 20660
  stamp: 
    secs: 0
    nsecs:         0
  frame_id: "world"
twist: 
  linear: 
    x: 0.0
    y: 0.0
    z: 0.0
  angular: 
    x: 0.0
    y: 0.0
    z: 1.251339077949524
---
header: 
  seq: 20998
  stamp: 
    secs: 0
    nsecs:         0
  frame_id: "world"
twist: 
  linear: 
    x: 0.0
    y: 0.0
    z: 1.0
  angular: 
    x: 0.0
    y: 0.0
    z: -3.7914913545447853
---
header: 
  seq: 21355
  stamp: 
    secs: 0
    nsecs:         0
  frame_id: "world"
twist: 
  linear: 
    x: -0.1687898701936219
    y: -0.3579011900994547
    z: 0.0
  angular: 
    x: 0.0
    y: 0.0
    z: -2.0114753246307373
---
header: 
  seq: 21667
  stamp: 
    secs: 0
    nsecs:         0
  frame_id: "world"
twist: 
  linear: 
    x: 0.0
    y: 0.0
    z: 1.0
  angular: 
    x: 0.0
    y: 0.0
    z: 1.3839154138449068
---
header: 
  seq: 22070
  stamp: 
    secs: 0
    nsecs:         0
  frame_id: "world"
twist: 
  linear: 
    x: 0.0
    y: 0.0
    z: 1.0
  angular: 
    x: 0.0
    y: 0.0
    z: -2.9941224497134047
---
header: 
  seq: 22419
  stamp: 
    secs: 0
    nsecs:         0
  frame_id: "world"
twist: 
  linear: 
    x: 0.0
    y: 0.0
    z: 1.0
  angular: 
    x: 0.0
    y: 0.0
    z: -1.6564040980831178
---
header: 
  seq: 22699
  stamp: 
    secs: 0
    nsecs:         0
  frame_id: "world"
twist: 
  linear: 
    x: 0.0
    y: 0.0
    z: 1.0
  angular: 
    x: 0.0
    y: 0.0
    z: -3.6689865043553076
---
header: 
  seq: 23051
  stamp: 
    secs: 0
    nsecs:         0
  frame_id: "world"
twist: 
  linear: 
    x: 0.0
    y: 0.0
    z: 1.0
  angular: 
    x: 0.0
    y: 0.0
    z: -1.9778736834072501
---
header: 
  seq: 23394
  stamp: 
    secs: 0
    nsecs:         0
  frame_id: "world"
twist: 
  linear: 
    x: 0.0
    y: 0.0
    z: 1.0
  angular: 
    x: 0.0
    y: 0.0
    z: -4.2388310484286125
---
header: 
  seq: 23755
  stamp: 
    secs: 0
    nsecs:         0
  frame_id: "world"
twist: 
  linear: 
    x: 0.0
    y: 0.0
    z: 1.0
  angular: 
    x: 0.0
    y: 0.0
    z: -2.6401633808529135
---
header: 
  seq: 24064
  stamp: 
    secs: 0
    nsecs:         0
  frame_id: "world"
twist: 
  linear: 
    x: 0.434104467213722
    y: 0.029389157116605766
    z: 0.0
  angular: 
    x: 0.0
    y: 0.0
    z: 0.06759755313396454
---
header: 
  seq: 24397
  stamp: 
    secs: 0
    nsecs:         0
  frame_id: "world"
twist: 
  linear: 
    x: -0.39355261066739233
    y: -0.05741706130242314
    z: 0.0
  angular: 
    x: 0.0
    y: 0.0
    z: -2.996720552444458
---
header: 
  seq: 24667
  stamp: 
    secs: 0
    nsecs:         0
  frame_id: "world"
twist: 
  linear: 
    x: 0.0
    y: 0.0
    z: 0.0
  angular: 
    x: 0.0
    y: 0.0
    z: 0.6698123812675476
---
header: 
  seq: 24999
  stamp: 
    secs: 0
    nsecs:         0
  frame_id: "world"
twist: 
  linear: 
    x: 0.0
    y: 0.0
    z: 1.0
  angular: 
    x: 0.0
    y: 0.0
    z: -3.0393288659227635
---
header: 
  seq: 25289
  stamp: 
    secs: 0
    nsecs:         0
  frame_id: "world"
twist: 
  linear: 
    x: 0.25552416301941655
    y: 0.35745717283389933
    z: 0.0
  angular: 
    x: 0.0
    y: 0.0
    z: 0.95018070936203
---
header: 
  seq: 25626
  stamp: 
    secs: 0
    nsecs:         0
  frame_id: "world"
twist: 
  linear: 
    x: 0.0
    y: 0.0
    z: 1.0
  angular: 
    x: 0.0
    y: 0.0
    z: -3.0356930570705445
---
header: 
  seq: 25962
  stamp: 
    secs: 0
    nsecs:         0
  frame_id: "world"
twist: 
  linear: 
    x: 0.3733212471868455
    y: 0.08777858415551028
    z: 0.0
  angular: 
    x: 0.0
    y: 0.0
    z: 0.23093385994434357
---
header: 
  seq: 26307
  stamp: 
    secs: 0
    nsecs:         0
  frame_id: "world"
twist: 
  linear: 
    x: -0.2823912119066301
    y: 0.2555223840133652
    z: 0.0
  angular: 
    x: 0.0
    y: 0.0
    z: 2.4061028957366943
---
header: 
  seq: 26626
  stamp: 
    secs: 0
    nsecs:         0
  frame_id: "world"
twist: 
  linear: 
    x: 0.0
    y: 0.0
    z: 0.0
  angular: 
    x: 0.0
    y: 0.0
    z: 0.21498174965381622
---
header: 
  seq: 26946
  stamp: 
    secs: 0
    nsecs:         0
  frame_id: "world"
twist: 
  linear: 
    x: 0.0
    y: 0.0
    z: 1.0
  angular: 
    x: 0.0
    y: 0.0
    z: 2.7149993330292035
---
header: 
  seq: 27258
  stamp: 
    secs: 0
    nsecs:         0
  frame_id: "world"
twist: 
  linear: 
    x: 0.36695522946207915
    y: -0.13977720372192343
    z: 0.0
  angular: 
    x: 0.0
    y: 0.0
    z: -0.36394283175468445
---
header: 
  seq: 27570
  stamp: 
    secs: 0
    nsecs:         0
  frame_id: "world"
twist: 
  linear: 
    x: 0.0
    y: 0.0
    z: 1.0
  angular: 
    x: 0.0
    y: 0.0
    z: 2.3927034063540287
---
header: 
  seq: 27872
  stamp: 
    secs: 0
    nsecs:         0
  frame_id: "world"
twist: 
  linear: 
    x: 0.3688963256526332
    y: 0.17617534636313156
    z: 0.0
  angular: 
    x: 0.0
    y: 0.0
    z: 0.4455464482307434
---
header: 
  seq: 28212
  stamp: 
    secs: 0
    nsecs:         0
  frame_id: "world"
twist: 
  linear: 
    x: 0.0
    y: 0.0
    z: 1.0
  angular: 
    x: 0.0
    y: 0.0
    z: 2.324991965616998
---
header: 
  seq: 28522
  stamp: 
    secs: 0
    nsecs:         0
  frame_id: "world"
twist: 
  linear: 
    x: 0.0
    y: 0.0
    z: 1.0
  angular: 
    x: 0.0
    y: 0.0
    z: 0.0866262974129138
---
header: 
  seq: 28886
  stamp: 
    secs: 0
    nsecs:         0
  frame_id: "world"
twist: 
  linear: 
    x: -0.06652119771584253
    y: 0.3720439040202251
    z: 0.0
  angular: 
    x: 0.0
    y: 0.0
    z: 1.7477260828018188
---
header: 
  seq: 29242
  stamp: 
    secs: 0
    nsecs:         0
  frame_id: "world"
twist: 
  linear: 
    x: 0.0
    y: 0.0
    z: 1.0
  angular: 
    x: 0.0
    y: 0.0
    z: 4.803568700125206
---
header: 
  seq: 29653
  stamp: 
    secs: 0
    nsecs:         0
  frame_id: "world"
twist: 
  linear: 
    x: 0.0
    y: 0.0
    z: 1.0
  angular: 
    x: 0.0
    y: 0.0
    z: 0.8676717053813513
---
header: 
  seq: 29932
  stamp: 
    secs: 0
    nsecs:         0
  frame_id: "world"
twist: 
  linear: 
    x: -1.1440899724823714
    y: 0.6283513453090682
    z: 0.0
  angular: 
    x: 0.0
    y: 0.0
    z: 2.639352321624756
---
header: 
  seq: 30143
  stamp: 
    secs: 0
    nsecs:         0
  frame_id: "world"
twist: 
  linear: 
    x: -1.1762277421826866
    y: 0.6514100445021493
    z: 0.0
  angular: 
    x: 0.0
    y: 0.0
    z: 2.635826826095581
---
header: 
  seq: 30355
  stamp: 
    secs: 0
    nsecs:         0
  frame_id: "world"
twist: 
  linear: 
    x: -1.3268499943511463
    y: -0.17276603773825377
    z: 0.0
  angular: 
    x: 0.0
    y: 0.0
    z: -3.012113332748413
---
header: 
  seq: 30589
  stamp: 
    secs: 0
    nsecs:         0
  frame_id: "world"
twist: 
  linear: 
    x: -0.6457473273825703
    y: 1.1390193248140719
    z: 0.0
  angular: 
    x: 0.0
    y: 0.0
    z: 2.0865466594696045
---
header: 
  seq: 30812
  stamp: 
    secs: 0
    nsecs:         0
  frame_id: "world"
twist: 
  linear: 
    x: 0.0
    y: 0.0
    z: 1.0
  angular: 
    x: 0.0
    y: 0.0
    z: 1.517116665840149
---
header: 
  seq: 31236
  stamp: 
    secs: 0
    nsecs:         0
  frame_id: "world"
twist: 
  linear: 
    x: 0.0
    y: 0.0
    z: 1.0
  angular: 
    x: 0.0
    y: 0.0
    z: 1.519296646118164
---
header: 
  seq: 31661
  stamp: 
    secs: 0
    nsecs:         0
  frame_id: "world"
twist: 
  linear: 
    x: 0.0
    y: 0.0
    z: 1.0
  angular: 
    x: 0.0
    y: 0.0
    z: 1.5203665494918823
---
header: 
  seq: 32086
  stamp: 
    secs: 0
    nsecs:         0
  frame_id: "world"
twist: 
  linear: 
    x: 0.0
    y: 0.0
    z: 1.0
  angular: 
    x: 0.0
    y: 0.0
    z: 1.5205610990524292
---
header: 
  seq: 32512
  stamp: 
    secs: 0
    nsecs:         0
  frame_id: "world"
twist: 
  linear: 
    x: 0.0
    y: 0.0
    z: 1.0
  angular: 
    x: 0.0
    y: 0.0
    z: 1.5206127166748047
---
header: 
  seq: 32937
  stamp: 
    secs: 0
    nsecs:         0
  frame_id: "world"
twist: 
  linear: 
    x: 0.0
    y: 0.0
    z: 1.0
  angular: 
    x: 0.0
    y: 0.0
    z: 1.5180660486221313
---
header: 
  seq: 33362
  stamp: 
    secs: 0
    nsecs:         0
  frame_id: "world"
twist: 
  linear: 
    x: 0.0
    y: 0.0
    z: 1.0
  angular: 
    x: 0.0
    y: 0.0
    z: 1.517236590385437
---
header: 
  seq: 33793
  stamp: 
    secs: 0
    nsecs:         0
  frame_id: "world"
twist: 
  linear: 
    x: 0.0
    y: 0.0
    z: 1.0
  angular: 
    x: 0.0
    y: 0.0
    z: 1.519776463508606
---
header: 
  seq: 34218
  stamp: 
    secs: 0
    nsecs:         0
  frame_id: "world"
twist: 
  linear: 
    x: 0.0
    y: 0.0
    z: 1.0
  angular: 
    x: 0.0
    y: 0.0
    z: 1.5164612531661987
---
header: 
  seq: 34642
  stamp: 
    secs: 0
    nsecs:         0
  frame_id: "world"
twist: 
  linear: 
    x: 0.0
    y: 0.0
    z: 1.0
  angular: 
    x: 0.0
    y: 0.0
    z: 1.5190174579620361
---
header: 
  seq: 35063
  stamp: 
    secs: 0
    nsecs:         0
  frame_id: "world"
twist: 
  linear: 
    x: 0.0
    y: 0.0
    z: 1.0
  angular: 
    x: 0.0
    y: 0.0
    z: 1.5173211097717285
---
header: 
  seq: 35493
  stamp: 
    secs: 0
    nsecs:         0
  frame_id: "world"
twist: 
  linear: 
    x: 0.0
    y: 0.0
    z: 1.0
  angular: 
    x: 0.0
    y: 0.0
    z: 1.5169548988342285
---
header: 
  seq: 35921
  stamp: 
    secs: 0
    nsecs:         0
  frame_id: "world"
twist: 
  linear: 
    x: 0.0
    y: 0.0
    z: 1.0
  angular: 
    x: 0.0
    y: 0.0
    z: 1.5191235542297363
---
header: 
  seq: 36310
  stamp: 
    secs: 0
    nsecs:         0
  frame_id: "world"
twist: 
  linear: 
    x: 0.0
    y: 0.0
    z: 0.0
  angular: 
    x: 0.0
    y: 0.0
    z: -1.3610923290252686
---
header: 
  seq: 36689
  stamp: 
    secs: 0
    nsecs:         0
  frame_id: "world"
twist: 
  linear: 
    x: 0.0
    y: 0.0
    z: 1.0
  angular: 
    x: 0.0
    y: 0.0
    z: -0.01697297699706027
---
header: 
  seq: 37021
  stamp: 
    secs: 0
    nsecs:         0
  frame_id: "world"
twist: 
  linear: 
    x: 0.0
    y: 0.0
    z: 1.0
  angular: 
    x: 0.0
    y: 0.0
    z: 1.9413182738237857
---
header: 
  seq: 37336
  stamp: 
    secs: 0
    nsecs:         0
  frame_id: "world"
twist: 
  linear: 
    x: 0.0
    y: 0.0
    z: 1.0
  angular: 
    x: 0.0
    y: 0.0
    z: 4.474035297235179
---
header: 
  seq: 37759
  stamp: 
    secs: 0
    nsecs:         0
  frame_id: "world"
twist: 
  linear: 
    x: 0.0
    y: 0.0
    z: 1.0
  angular: 
    x: 0.0
    y: 0.0
    z: 0.5771536321345349
---
header: 
  seq: 38118
  stamp: 
    secs: 0
    nsecs:         0
  frame_id: "world"
twist: 
  linear: 
    x: 0.0
    y: 0.0
    z: 1.0
  angular: 
    x: 0.0
    y: 0.0
    z: 1.7322420883552019
---
header: 
  seq: 38453
  stamp: 
    secs: 0
    nsecs:         0
  frame_id: "world"
twist: 
  linear: 
    x: -0.17712604319460293
    y: -0.34042689144706795
    z: 0.0
  angular: 
    x: 0.0
    y: 0.0
    z: -2.0505564212799072
---
header: 
  seq: 38759
  stamp: 
    secs: 0
    nsecs:         0
  frame_id: "world"
twist: 
  linear: 
    x: 0.5744060470499109
    y: -1.1923788694679112
    z: 0.0
  angular: 
    x: 0.0
    y: 0.0
    z: -1.1218702793121338
---
header: 
  seq: 38976
  stamp: 
    secs: 0
    nsecs:         0
  frame_id: "world"
twist: 
  linear: 
    x: 0.8141263451458027
    y: -1.0369330580858604
    z: 0.0
  angular: 
    x: 0.0
    y: 0.0
    z: -0.9051889777183533
---
header: 
  seq: 39189
  stamp: 
    secs: 0
    nsecs:         0
  frame_id: "world"
twist: 
  linear: 
    x: 0.8714883544952877
    y: -1.0310227483394667
    z: 0.0
  angular: 
    x: 0.0
    y: 0.0
    z: -0.8690571188926697
---
header: 
  seq: 39401
  stamp: 
    secs: 0
    nsecs:         0
  frame_id: "world"
twist: 
  linear: 
    x: 0.7297638048012826
    y: -0.8829322628049487
    z: 0.0
  angular: 
    x: 0.0
    y: 0.0
    z: -0.8800907731056213
---
header: 
  seq: 39615
  stamp: 
    secs: 0
    nsecs:         0
  frame_id: "world"
twist: 
  linear: 
    x: 1.1600390063990138
    y: -0.6730942115862502
    z: 0.0
  angular: 
    x: 0.0
    y: 0.0
    z: -0.5257589817047119
---
header: 
  seq: 39870
  stamp: 
    secs: 0
    nsecs:         0
  frame_id: "world"
twist: 
  linear: 
    x: 0.0
    y: 0.0
    z: 0.0
  angular: 
    x: 0.0
    y: 0.0
    z: -2.4683220386505127
---
header: 
  seq: 40225
  stamp: 
    secs: 0
    nsecs:         0
  frame_id: "world"
twist: 
  linear: 
    x: 0.0
    y: 0.0
    z: 0.0
  angular: 
    x: 0.0
    y: 0.0
    z: 0.480752557516098
---
header: 
  seq: 40503
  stamp: 
    secs: 0
    nsecs:         0
  frame_id: "world"
twist: 
  linear: 
    x: -1.1026931160089046
    y: 0.20383187594671082
    z: 0.0
  angular: 
    x: 0.0
    y: 0.0
    z: 2.9588067531585693
---
header: 
  seq: 40784
  stamp: 
    secs: 0
    nsecs:         0
  frame_id: "world"
twist: 
  linear: 
    x: -0.2003181274499711
    y: -0.314626357758624
    z: 0.0
  angular: 
    x: 0.0
    y: 0.0
    z: -2.1377546787261963
---
header: 
  seq: 41105
  stamp: 
    secs: 0
    nsecs:         0
  frame_id: "world"
twist: 
  linear: 
    x: 1.0236844500056619
    y: 0.8800967634655315
    z: 0.0
  angular: 
    x: 0.0
    y: 0.0
    z: 0.7101183533668518
---
header: 
  seq: 41316
  stamp: 
    secs: 0
    nsecs:         0
  frame_id: "world"
twist: 
  linear: 
    x: 0.140602285869182
    y: 0.4089574225865201
    z: 0.0
  angular: 
    x: 0.0
    y: 0.0
    z: 1.2396495342254639
---
header: 
  seq: 41584
  stamp: 
    secs: 0
    nsecs:         0
  frame_id: "world"
twist: 
  linear: 
    x: -0.4129016675267137
    y: -0.6370835898165341
    z: 0.0
  angular: 
    x: 0.0
    y: 0.0
    z: -2.145843267440796
---
header: 
  seq: 41816
  stamp: 
    secs: 0
    nsecs:         0
  frame_id: "world"
twist: 
  linear: 
    x: 1.1874949463188629
    y: -0.6310128402336974
    z: 0.0
  angular: 
    x: 0.0
    y: 0.0
    z: -0.4884364902973175
---
header: 
  seq: 42027
  stamp: 
    secs: 0
    nsecs:         0
  frame_id: "world"
twist: 
  linear: 
    x: 0.32367169732473167
    y: 0.20150194346221761
    z: 0.0
  angular: 
    x: 0.0
    y: 0.0
    z: 0.5568358302116394
---
header: 
  seq: 42333
  stamp: 
    secs: 0
    nsecs:         0
  frame_id: "world"
twist: 
  linear: 
    x: 0.0
    y: 0.0
    z: 0.0
  angular: 
    x: 0.0
    y: 0.0
    z: 1.6201469898223877
---
header: 
  seq: 42612
  stamp: 
    secs: 0
    nsecs:         0
  frame_id: "world"
twist: 
  linear: 
    x: -0.8799658148940899
    y: -0.6128237384462728
    z: 0.0
  angular: 
    x: 0.0
    y: 0.0
    z: -2.5332748889923096
---
header: 
  seq: 42872
  stamp: 
    secs: 0
    nsecs:         0
  frame_id: "world"
twist: 
  linear: 
    x: 1.3411839456841317
    y: -0.09909952311191675
    z: 0.0
  angular: 
    x: 0.0
    y: 0.0
    z: -0.07375560700893402
---
header: 
  seq: 43085
  stamp: 
    secs: 0
    nsecs:         0
  frame_id: "world"
twist: 
  linear: 
    x: 0.7872074204089518
    y: 0.10566135285571868
    z: 0.0
  angular: 
    x: 0.0
    y: 0.0
    z: 0.13342560827732086
---
header: 
  seq: 43320
  stamp: 
    secs: 0
    nsecs:         0
  frame_id: "world"
twist: 
  linear: 
    x: -1.0829077728972205
    y: 0.7471859929920409
    z: 0.0
  angular: 
    x: 0.0
    y: 0.0
    z: 2.5376224517822266
---
header: 
  seq: 43535
  stamp: 
    secs: 0
    nsecs:         0
  frame_id: "world"
twist: 
  linear: 
    x: -1.080353710876232
    y: 0.6032647421363732
    z: 0.0
  angular: 
    x: 0.0
    y: 0.0
    z: 2.632326602935791
---
header: 
  seq: 43777
  stamp: 
    secs: 0
    nsecs:         0
  frame_id: "world"
twist: 
  linear: 
    x: 0.0
    y: 0.0
    z: 0.0
  angular: 
    x: 0.0
    y: 0.0
    z: -0.8862490653991699
---
header: 
  seq: 44007
  stamp: 
    secs: 0
    nsecs:         0
  frame_id: "world"
twist: 
  linear: 
    x: 0.9622882804050954
    y: -0.6327640035827992
    z: 0.0
  angular: 
    x: 0.0
    y: 0.0
    z: -0.581672728061676
---
header: 
  seq: 44263
  stamp: 
    secs: 0
    nsecs:         0
  frame_id: "world"
twist: 
  linear: 
    x: 0.0
    y: 0.0
    z: 0.0
  angular: 
    x: 0.0
    y: 0.0
    z: 2.657554864883423
---
header: 
  seq: 44478
  stamp: 
    secs: 0
    nsecs:         0
  frame_id: "world"
twist: 
  linear: 
    x: -0.7713977391141064
    y: 0.11000724450109708
    z: 0.0
  angular: 
    x: 0.0
    y: 0.0
    z: 2.9999401569366455
---
header: 
  seq: 44784
  stamp: 
    secs: 0
    nsecs:         0
  frame_id: "world"
twist: 
  linear: 
    x: 0.27425841019496616
    y: -0.2606932691894877
    z: 0.0
  angular: 
    x: 0.0
    y: 0.0
    z: -0.7600458860397339
---
header: 
  seq: 45000
  stamp: 
    secs: 0
    nsecs:         0
  frame_id: "world"
twist: 
  linear: 
    x: 1.3324011247888607
    y: -0.1542426939197162
    z: 0.0
  angular: 
    x: 0.0
    y: 0.0
    z: -0.11525001376867294
---
header: 
  seq: 45213
  stamp: 
    secs: 0
    nsecs:         0
  frame_id: "world"
twist: 
  linear: 
    x: 0.0
    y: 0.0
    z: 0.0
  angular: 
    x: 0.0
    y: 0.0
    z: 2.833423376083374
---
header: 
  seq: 45457
  stamp: 
    secs: 0
    nsecs:         0
  frame_id: "world"
twist: 
  linear: 
    x: -0.6402926011997698
    y: 0.029850568355515174
    z: 0.0
  angular: 
    x: 0.0
    y: 0.0
    z: 3.095006227493286
---
header: 
  seq: 45721
  stamp: 
    secs: 0
    nsecs:         0
  frame_id: "world"
twist: 
  linear: 
    x: 1.1940112449328224
    y: -0.38184158878987556
    z: 0.0
  angular: 
    x: 0.0
    y: 0.0
    z: -0.30951911211013794
---
header: 
  seq: 45972
  stamp: 
    secs: 0
    nsecs:         0
  frame_id: "world"
twist: 
  linear: 
    x: 0.0
    y: 0.0
    z: 0.0
  angular: 
    x: 0.0
    y: 0.0
    z: 2.63624906539917
---
header: 
  seq: 46193
  stamp: 
    secs: 0
    nsecs:         0
  frame_id: "world"
twist: 
  linear: 
    x: -0.04291293001535189
    y: 1.1710210042380385
    z: 0.0
  angular: 
    x: 0.0
    y: 0.0
    z: 1.6074256896972656
---
header: 
  seq: 46449
  stamp: 
    secs: 0
    nsecs:         0
  frame_id: "world"
twist: 
  linear: 
    x: 0.0
    y: 0.0
    z: 0.0
  angular: 
    x: 0.0
    y: 0.0
    z: -2.25651216506958
---
header: 
  seq: 46695
  stamp: 
    secs: 0
    nsecs:         0
  frame_id: "world"
twist: 
  linear: 
    x: 0.8455861771944636
    y: -1.0523706565563669
    z: 0.0
  angular: 
    x: 0.0
    y: 0.0
    z: -0.8939211964607239
---
header: 
  seq: 46907
  stamp: 
    secs: 0
    nsecs:         0
  frame_id: "world"
twist: 
  linear: 
    x: 0.3844184055535232
    y: -0.07891259018591201
    z: 0.0
  angular: 
    x: 0.0
    y: 0.0
    z: -0.20246522128582
---
header: 
  seq: 47176
  stamp: 
    secs: 0
    nsecs:         0
  frame_id: "world"
twist: 
  linear: 
    x: -0.9133126567734094
    y: 0.9863863761238074
    z: 0.0
  angular: 
    x: 0.0
    y: 0.0
    z: 2.3177475929260254
---
header: 
  seq: 47411
  stamp: 
    secs: 0
    nsecs:         0
  frame_id: "world"
twist: 
  linear: 
    x: 0.0
    y: 0.0
    z: 1.0
  angular: 
    x: 0.0
    y: 0.0
    z: 3.123547959876493
---
header: 
  seq: 47672
  stamp: 
    secs: 0
    nsecs:         0
  frame_id: "world"
twist: 
  linear: 
    x: 0.8041382031931401
    y: -1.084371566952486
    z: 0.0
  angular: 
    x: 0.0
    y: 0.0
    z: -0.9327118396759033
---
header: 
  seq: 47886
  stamp: 
    secs: 0
    nsecs:         0
  frame_id: "world"
twist: 
  linear: 
    x: 0.5603549819127438
    y: -0.37486171543612545
    z: 0.0
  angular: 
    x: 0.0
    y: 0.0
    z: -0.5895968675613403
---
header: 
  seq: 48139
  stamp: 
    secs: 0
    nsecs:         0
  frame_id: "world"
twist: 
  linear: 
    x: 0.0
    y: 0.0
    z: 0.0
  angular: 
    x: 0.0
    y: 0.0
    z: -2.9774389266967773
---
header: 
  seq: 48491
  stamp: 
    secs: 0
    nsecs:         0
  frame_id: "world"
twist: 
  linear: 
    x: -1.2260118731060694
    y: -0.5573707124514472
    z: 0.0
  angular: 
    x: 0.0
    y: 0.0
    z: -2.714902639389038
---
header: 
  seq: 48714
  stamp: 
    secs: 0
    nsecs:         0
  frame_id: "world"
twist: 
  linear: 
    x: 1.1609825487926138
    y: 0.6810517238969651
    z: 0.0
  angular: 
    x: 0.0
    y: 0.0
    z: 0.5305206775665283
---
header: 
  seq: 48952
  stamp: 
    secs: 0
    nsecs:         0
  frame_id: "world"
twist: 
  linear: 
    x: 0.0
    y: 0.0
    z: 0.0
  angular: 
    x: 0.0
    y: 0.0
    z: 2.61069393157959
---
header: 
  seq: 49203
  stamp: 
    secs: 0
    nsecs:         0
  frame_id: "world"
twist: 
  linear: 
    x: -0.725780619095059
    y: 0.038139533609805217
    z: 0.0
  angular: 
    x: 0.0
    y: 0.0
    z: 3.0890913009643555
---
header: 
  seq: 49466
  stamp: 
    secs: 0
    nsecs:         0
  frame_id: "world"
twist: 
  linear: 
    x: 1.2523527346752399
    y: -0.42898321850917315
    z: 0.0
  angular: 
    x: 0.0
    y: 0.0
    z: -0.3300151824951172
---
header: 
  seq: 49680
  stamp: 
    secs: 0
    nsecs:         0
  frame_id: "world"
twist: 
  linear: 
    x: 0.628982319844995
    y: -0.029121162629559327
    z: 0.0
  angular: 
    x: 0.0
    y: 0.0
    z: -0.04626583307981491
---
header: 
  seq: 49920
  stamp: 
    secs: 0
    nsecs:         0
  frame_id: "world"
twist: 
  linear: 
    x: -0.5465725239414392
    y: 1.2075377330532475
    z: 0.0
  angular: 
    x: 0.0
    y: 0.0
    z: 1.9958384037017822
---
header: 
  seq: 50134
  stamp: 
    secs: 0
    nsecs:         0
  frame_id: "world"
twist: 
  linear: 
    x: -0.3555734468604395
    y: 0.3771982586726659
    z: 0.0
  angular: 
    x: 0.0
    y: 0.0
    z: 2.3266918659210205
---
header: 
  seq: 50437
  stamp: 
    secs: 0
    nsecs:         0
  frame_id: "world"
twist: 
  linear: 
    x: 0.3086927011877932
    y: -1.2655105354945408
    z: 0.0
  angular: 
    x: 0.0
    y: 0.0
    z: -1.3315411806106567
---
header: 
  seq: 50652
  stamp: 
    secs: 0
    nsecs:         0
  frame_id: "world"
twist: 
  linear: 
    x: 0.31342563010253355
    y: -0.41068238597810197
    z: 0.0
  angular: 
    x: 0.0
    y: 0.0
    z: -0.9189116358757019
---
header: 
  seq: 50923
  stamp: 
    secs: 0
    nsecs:         0
  frame_id: "world"
twist: 
  linear: 
    x: -0.5037287955789099
    y: 0.887265537336257
    z: 0.0
  angular: 
    x: 0.0
    y: 0.0
    z: 2.087151288986206
---
header: 
  seq: 51180
  stamp: 
    secs: 0
    nsecs:         0
  frame_id: "world"
twist: 
  linear: 
    x: 0.08390653376102199
    y: -1.3473898842432284
    z: 0.0
  angular: 
    x: 0.0
    y: 0.0
    z: -1.5086033344268799
---
header: 
  seq: 51393
  stamp: 
    secs: 0
    nsecs:         0
  frame_id: "world"
twist: 
  linear: 
    x: 0.36633894160527225
    y: -0.5411682435319297
    z: 0.0
  angular: 
    x: 0.0
    y: 0.0
    z: -0.975714385509491
---
header: 
  seq: 51756
  stamp: 
    secs: 0
    nsecs:         0
  frame_id: "world"
twist: 
  linear: 
    x: 0.0
    y: 0.0
    z: 1.0
  angular: 
    x: 0.0
    y: 0.0
    z: 0.36426663398742676
---
header: 
  seq: 52060
  stamp: 
    secs: 0
    nsecs:         0
  frame_id: "world"
twist: 
  linear: 
    x: -0.7359886115054043
    y: 1.1208814735689276
    z: 0.0
  angular: 
    x: 0.0
    y: 0.0
    z: 2.151808500289917
---
header: 
  seq: 52323
  stamp: 
    secs: 0
    nsecs:         0
  frame_id: "world"
twist: 
  linear: 
    x: -0.40407273190283
    y: -1.2541623188077924
    z: 0.0
  angular: 
    x: 0.0
    y: 0.0
    z: -1.8824803829193115
---
header: 
  seq: 52537
  stamp: 
    secs: 0
    nsecs:         0
  frame_id: "world"
twist: 
  linear: 
    x: 0.06023371091394827
    y: -0.657153010006894
    z: 0.0
  angular: 
    x: 0.0
    y: 0.0
    z: -1.4793931245803833
---
header: 
  seq: 52774
  stamp: 
    secs: 0
    nsecs:         0
  frame_id: "world"
twist: 
  linear: 
    x: 1.0221300786219871
    y: 0.8680072698487786
    z: 0.0
  angular: 
    x: 0.0
    y: 0.0
    z: 0.704037606716156
---
header: 
  seq: 52990
  stamp: 
    secs: 0
    nsecs:         0
  frame_id: "world"
twist: 
  linear: 
    x: 0.49565107233966643
    y: 0.5894454949961364
    z: 0.0
  angular: 
    x: 0.0
    y: 0.0
    z: 0.871622622013092
---
header: 
  seq: 53280
  stamp: 
    secs: 0
    nsecs:         0
  frame_id: "world"
twist: 
  linear: 
    x: -1.0164843385364015
    y: -0.8852599041732981
    z: 0.0
  angular: 
    x: 0.0
    y: 0.0
    z: -2.4250874519348145
---
header: 
  seq: 53493
  stamp: 
    secs: 0
    nsecs:         0
  frame_id: "world"
twist: 
  linear: 
    x: -0.30837705729943105
    y: -0.5263524418878004
    z: 0.0
  angular: 
    x: 0.0
    y: 0.0
    z: -2.1007654666900635
---
header: 
  seq: 53760
  stamp: 
    secs: 0
    nsecs:         0
  frame_id: "world"
twist: 
  linear: 
    x: 0.7157769160819549
    y: 1.1393343160934015
    z: 0.0
  angular: 
    x: 0.0
    y: 0.0
    z: 1.0098695755004883
---
header: 
  seq: 54022
  stamp: 
    secs: 0
    nsecs:         0
  frame_id: "world"
twist: 
  linear: 
    x: -1.2020028020674773
    y: -0.568567240555275
    z: 0.0
  angular: 
    x: 0.0
    y: 0.0
    z: -2.699763774871826
---
header: 
  seq: 54234
  stamp: 
    secs: 0
    nsecs:         0
  frame_id: "world"
twist: 
  linear: 
    x: -0.7774297288542434
    y: -0.6382814561467975
    z: 0.0
  angular: 
    x: 0.0
    y: 0.0
    z: -2.4541683197021484
---
header: 
  seq: 54475
  stamp: 
    secs: 0
    nsecs:         0
  frame_id: "world"
twist: 
  linear: 
    x: 1.347659105190247
    y: -0.04010434256748209
    z: 0.0
  angular: 
    x: 0.0
    y: 0.0
    z: -0.029749678447842598
---
header: 
  seq: 54690
  stamp: 
    secs: 0
    nsecs:         0
  frame_id: "world"
twist: 
  linear: 
    x: 0.4490904797573145
    y: 0.2620128105017811
    z: 0.0
  angular: 
    x: 0.0
    y: 0.0
    z: 0.5281464457511902
---
header: 
  seq: 54960
  stamp: 
    secs: 0
    nsecs:         0
  frame_id: "world"
twist: 
  linear: 
    x: -1.189250516431411
    y: -0.5579532182265923
    z: 0.0
  angular: 
    x: 0.0
    y: 0.0
    z: -2.7029168605804443
---
header: 
  seq: 55202
  stamp: 
    secs: 0
    nsecs:         0
  frame_id: "world"
twist: 
  linear: 
    x: 1.3483555149220547
    y: 0.044892212000790445
    z: 0.0
  angular: 
    x: 0.0
    y: 0.0
    z: 0.03328168764710426
---
header: 
  seq: 55414
  stamp: 
    secs: 0
    nsecs:         0
  frame_id: "world"
twist: 
  linear: 
    x: 0.7396281872246879
    y: 0.3182990828815472
    z: 0.0
  angular: 
    x: 0.0
    y: 0.0
    z: 0.40639346837997437
---
header: 
  seq: 55652
  stamp: 
    secs: 0
    nsecs:         0
  frame_id: "world"
twist: 
  linear: 
    x: -1.248225475074638
    y: 0.415918326587992
    z: 0.0
  angular: 
    x: 0.0
    y: 0.0
    z: 2.8199551105499268
---
header: 
  seq: 55864
  stamp: 
    secs: 0
    nsecs:         0
  frame_id: "world"
twist: 
  linear: 
    x: -0.5789035647034242
    y: -0.04521408638135441
    z: 0.0
  angular: 
    x: 0.0
    y: 0.0
    z: -3.063647985458374
---
header: 
  seq: 56126
  stamp: 
    secs: 0
    nsecs:         0
  frame_id: "world"
twist: 
  linear: 
    x: 1.345893147035279
    y: -0.10522125239919053
    z: 0.0
  angular: 
    x: 0.0
    y: 0.0
    z: -0.07802083343267441
---
header: 
  seq: 56339
  stamp: 
    secs: 0
    nsecs:         0
  frame_id: "world"
twist: 
  linear: 
    x: 0.5858540592452695
    y: 0.17781533206841685
    z: 0.0
  angular: 
    x: 0.0
    y: 0.0
    z: 0.29467809200286865
---
header: 
  seq: 56619
  stamp: 
    secs: 0
    nsecs:         0
  frame_id: "world"
twist: 
  linear: 
    x: -1.33675793408941
    y: 0.02995232617375292
    z: 0.0
  angular: 
    x: 0.0
    y: 0.0
    z: 3.119189500808716
---
header: 
  seq: 56839
  stamp: 
    secs: 0
    nsecs:         0
  frame_id: "world"
twist: 
  linear: 
    x: 0.0
    y: 0.0
    z: 1.0
  angular: 
    x: 0.0
    y: 0.0
    z: -2.1048274703301586
---
header: 
  seq: 57118
  stamp: 
    secs: 0
    nsecs:         0
  frame_id: "world"
twist: 
  linear: 
    x: 1.2925946471596685
    y: 0.35624999991101214
    z: 0.0
  angular: 
    x: 0.0
    y: 0.0
    z: 0.26893171668052673
---
header: 
  seq: 57359
  stamp: 
    secs: 0
    nsecs:         0
  frame_id: "world"
twist: 
  linear: 
    x: 0.0
    y: 0.0
    z: 1.0
  angular: 
    x: 0.0
    y: 0.0
    z: -4.761254972066412
---
header: 
  seq: 57593
  stamp: 
    secs: 0
    nsecs:         0
  frame_id: "world"
twist: 
  linear: 
    x: -1.1207308319803615
    y: 0.6572850857234677
    z: 0.0
  angular: 
    x: 0.0
    y: 0.0
    z: 2.6111743450164795
---
header: 
  seq: 58011
  stamp: 
    secs: 0
    nsecs:         0
  frame_id: "world"
twist: 
  linear: 
    x: 0.0
    y: 0.0
    z: 0.0
  angular: 
    x: 0.0
    y: 0.0
    z: 0.6403877139091492
---
header: 
  seq: 58249
  stamp: 
    secs: 0
    nsecs:         0
  frame_id: "world"
twist: 
  linear: 
    x: 1.2957285916248897
    y: -0.37892897914094
    z: 0.0
  angular: 
    x: 0.0
    y: 0.0
    z: -0.2845109701156616
---
header: 
  seq: 58458
  stamp: 
    secs: 0
    nsecs:         0
  frame_id: "world"
twist: 
  linear: 
    x: 1.2976633439721819
    y: -0.37225022037807665
    z: 0.0
  angular: 
    x: 0.0
    y: 0.0
    z: -0.27936026453971863
---
header: 
  seq: 58669
  stamp: 
    secs: 0
    nsecs:         0
  frame_id: "world"
twist: 
  linear: 
    x: 1.287407943438643
    y: -0.40630128008503896
    z: 0.0
  angular: 
    x: 0.0
    y: 0.0
    z: -0.30570316314697266
---
header: 
  seq: 58880
  stamp: 
    secs: 0
    nsecs:         0
  frame_id: "world"
twist: 
  linear: 
    x: 1.2772829444734564
    y: -0.43709099859782835
    z: 0.0
  angular: 
    x: 0.0
    y: 0.0
    z: -0.32971248030662537
---
header: 
  seq: 59092
  stamp: 
    secs: 0
    nsecs:         0
  frame_id: "world"
twist: 
  linear: 
    x: 1.270926198540849
    y: -0.45524351047678013
    z: 0.0
  angular: 
    x: 0.0
    y: 0.0
    z: -0.3439595103263855
---
header: 
  seq: 59303
  stamp: 
    secs: 0
    nsecs:         0
  frame_id: "world"
twist: 
  linear: 
    x: 1.3108921669656572
    y: -0.32258583233595434
    z: 0.0
  angular: 
    x: 0.0
    y: 0.0
    z: -0.24128694832324982
---
header: 
  seq: 59514
  stamp: 
    secs: 0
    nsecs:         0
  frame_id: "world"
twist: 
  linear: 
    x: 1.2682522953315012
    y: -0.4626403962679241
    z: 0.0
  angular: 
    x: 0.0
    y: 0.0
    z: -0.34978553652763367
---
header: 
  seq: 59724
  stamp: 
    secs: 0
    nsecs:         0
  frame_id: "world"
twist: 
  linear: 
    x: 1.239528580962349
    y: -0.5348542402844108
    z: 0.0
  angular: 
    x: 0.0
    y: 0.0
    z: -0.4073617160320282
---
header: 
  seq: 59935
  stamp: 
    secs: 0
    nsecs:         0
  frame_id: "world"
twist: 
  linear: 
    x: 1.3048426437457001
    y: -0.3462452910585204
    z: 0.0
  angular: 
    x: 0.0
    y: 0.0
    z: -0.25937625765800476
---
header: 
  seq: 60147
  stamp: 
    secs: 0
    nsecs:         0
  frame_id: "world"
twist: 
  linear: 
    x: 1.2818249475674781
    y: -0.4235857715992384
    z: 0.0
  angular: 
    x: 0.0
    y: 0.0
    z: -0.31915780901908875
---
header: 
  seq: 60359
  stamp: 
    secs: 0
    nsecs:         0
  frame_id: "world"
twist: 
  linear: 
    x: 0.8892861846662183
    y: -0.2554828953623785
    z: 0.0
  angular: 
    x: 0.0
    y: 0.0
    z: -0.2797553241252899
---
header: 
  seq: 60636
  stamp: 
    secs: 0
    nsecs:         0
  frame_id: "world"
twist: 
  linear: 
    x: 0.0
    y: 0.0
    z: 0.0
  angular: 
    x: 0.0
    y: 0.0
    z: -0.22403402626514435
---
header: 
  seq: 60861
  stamp: 
    secs: 0
    nsecs:         0
  frame_id: "world"
twist: 
  linear: 
    x: 0.8604797171509715
    y: -0.24253496534091132
    z: 0.0
  angular: 
    x: 0.0
    y: 0.0
    z: -0.2747327387332916
---
header: 
  seq: 61075
  stamp: 
    secs: 0
    nsecs:         0
  frame_id: "world"
twist: 
  linear: 
    x: 1.349640446201531
    y: 0.031156199416861746
    z: 0.0
  angular: 
    x: 0.0
    y: 0.0
    z: 0.023080669343471527
---
header: 
  seq: 61286
  stamp: 
    secs: 0
    nsecs:         0
  frame_id: "world"
twist: 
  linear: 
    x: 0.8717012813108316
    y: -0.10966039028030324
    z: 0.0
  angular: 
    x: 0.0
    y: 0.0
    z: -0.1251429319381714
---
header: 
  seq: 61498
  stamp: 
    secs: 0
    nsecs:         0
  frame_id: "world"
twist: 
  linear: 
    x: 0.8589626604424319
    y: -0.09275233387985217
    z: 0.0
  angular: 
    x: 0.0
    y: 0.0
    z: -0.10756495594978333
---
header: 
  seq: 61732
  stamp: 
    secs: 0
    nsecs:         0
  frame_id: "world"
twist: 
  linear: 
    x: 0.0
    y: 0.0
    z: 0.0
  angular: 
    x: 0.0
    y: 0.0
    z: -1.4388883113861084
---
header: 
  seq: 62007
  stamp: 
    secs: 0
    nsecs:         0
  frame_id: "world"
twist: 
  linear: 
    x: 0.0
    y: 0.0
    z: 0.0
  angular: 
    x: 0.0
    y: 0.0
    z: -0.5408889055252075
---
header: 
  seq: 62334
  stamp: 
    secs: 0
    nsecs:         0
  frame_id: "world"
twist: 
  linear: 
    x: 0.0
    y: 0.0
    z: 0.0
  angular: 
    x: 0.0
    y: 0.0
    z: -1.6375854015350342
---
header: 
  seq: 62643
  stamp: 
    secs: 0
    nsecs:         0
  frame_id: "world"
twist: 
  linear: 
    x: 0.0
    y: 0.0
    z: 0.0
  angular: 
    x: 0.0
    y: 0.0
    z: -1.8437774181365967
---
header: 
  seq: 62975
  stamp: 
    secs: 0
    nsecs:         0
  frame_id: "world"
twist: 
  linear: 
    x: 1.2540421042644556
    y: -0.49987840962985153
    z: 0.0
  angular: 
    x: 0.0
    y: 0.0
    z: -0.3793106973171234
---
header: 
  seq: 63187
  stamp: 
    secs: 0
    nsecs:         0
  frame_id: "world"
twist: 
  linear: 
    x: 1.1615032930269373
    y: -0.6880481002934083
    z: 0.0
  angular: 
    x: 0.0
    y: 0.0
    z: -0.5347955822944641
---
header: 
  seq: 63397
  stamp: 
    secs: 0
    nsecs:         0
  frame_id: "world"
twist: 
  linear: 
    x: 1.1568331439779997
    y: -0.6958714793916032
    z: 0.0
  angular: 
    x: 0.0
    y: 0.0
    z: -0.5415447354316711
---
header: 
  seq: 63608
  stamp: 
    secs: 0
    nsecs:         0
  frame_id: "world"
twist: 
  linear: 
    x: 1.2246116769337487
    y: -0.5681781741305708
    z: 0.0
  angular: 
    x: 0.0
    y: 0.0
    z: -0.43440717458724976
---
header: 
  seq: 63819
  stamp: 
    secs: 0
    nsecs:         0
  frame_id: "world"
twist: 
  linear: 
    x: 1.247836407152981
    y: -0.5151741237096931
    z: 0.0
  angular: 
    x: 0.0
    y: 0.0
    z: -0.39153802394866943
---
header: 
  seq: 64030
  stamp: 
    secs: 0
    nsecs:         0
  frame_id: "world"
twist: 
  linear: 
    x: 1.2494914917726074
    y: -0.5111466856768322
    z: 0.0
  angular: 
    x: 0.0
    y: 0.0
    z: -0.38831251859664917
---
header: 
  seq: 64241
  stamp: 
    secs: 0
    nsecs:         0
  frame_id: "world"
twist: 
  linear: 
    x: 1.2269102894116926
    y: -0.56319744190142
    z: 0.0
  angular: 
    x: 0.0
    y: 0.0
    z: -0.43034371733665466
---
header: 
  seq: 64452
  stamp: 
    secs: 0
    nsecs:         0
  frame_id: "world"
twist: 
  linear: 
    x: 1.1641680129743246
    y: -0.6835297462805904
    z: 0.0
  angular: 
    x: 0.0
    y: 0.0
    z: -0.5309099555015564
---
header: 
  seq: 64663
  stamp: 
    secs: 0
    nsecs:         0
  frame_id: "world"
twist: 
  linear: 
    x: 1.0989481698210921
    y: -0.7841000635178271
    z: 0.0
  angular: 
    x: 0.0
    y: 0.0
    z: -0.6197292804718018
---
header: 
  seq: 64874
  stamp: 
    secs: 0
    nsecs:         0
  frame_id: "world"
twist: 
  linear: 
    x: 1.1369784481527323
    y: -0.7278598601370363
    z: 0.0
  angular: 
    x: 0.0
    y: 0.0
    z: -0.5694339871406555
---
header: 
  seq: 65085
  stamp: 
    secs: 0
    nsecs:         0
  frame_id: "world"
twist: 
  linear: 
    x: 1.1565348766262031
    y: -0.6963669171580263
    z: 0.0
  angular: 
    x: 0.0
    y: 0.0
    z: -0.5419731140136719
---
header: 
  seq: 65296
  stamp: 
    secs: 0
    nsecs:         0
  frame_id: "world"
twist: 
  linear: 
    x: 1.1287019217754723
    y: -0.740629405324697
    z: 0.0
  angular: 
    x: 0.0
    y: 0.0
    z: -0.580706000328064
---
header: 
  seq: 65509
  stamp: 
    secs: 0
    nsecs:         0
  frame_id: "world"
twist: 
  linear: 
    x: 1.1202038141617647
    y: -0.7534212094589803
    z: 0.0
  angular: 
    x: 0.0
    y: 0.0
    z: -0.5920819640159607
---
header: 
  seq: 65722
  stamp: 
    secs: 0
    nsecs:         0
  frame_id: "world"
twist: 
  linear: 
    x: 1.1417548543306348
    y: -0.7203442445461455
    z: 0.0
  angular: 
    x: 0.0
    y: 0.0
    z: -0.5628377199172974
---
header: 
  seq: 65933
  stamp: 
    secs: 0
    nsecs:         0
  frame_id: "world"
twist: 
  linear: 
    x: 1.0012572823034662
    y: -0.9055296702759315
    z: 0.0
  angular: 
    x: 0.0
    y: 0.0
    z: -0.7352365851402283
---
header: 
  seq: 66144
  stamp: 
    secs: 0
    nsecs:         0
  frame_id: "world"
twist: 
  linear: 
    x: 0.8772715496481055
    y: -1.0261065491224273
    z: 0.0
  angular: 
    x: 0.0
    y: 0.0
    z: -0.8634345531463623
---
header: 
  seq: 66354
  stamp: 
    secs: 0
    nsecs:         0
  frame_id: "world"
twist: 
  linear: 
    x: 0.7370240451748842
    y: -1.1310595279482571
    z: 0.0
  angular: 
    x: 0.0
    y: 0.0
    z: -0.9932811856269836
---
header: 
  seq: 66566
  stamp: 
    secs: 0
    nsecs:         0
  frame_id: "world"
twist: 
  linear: 
    x: 0.5447824612580532
    y: -1.2351971844621643
    z: 0.0
  angular: 
    x: 0.0
    y: 0.0
    z: -1.155410885810852
---
header: 
  seq: 66778
  stamp: 
    secs: 0
    nsecs:         0
  frame_id: "world"
twist: 
  linear: 
    x: 0.24455056731824487
    y: -1.3276653570297636
    z: 0.0
  angular: 
    x: 0.0
    y: 0.0
    z: -1.3886420726776123
---
header: 
  seq: 66991
  stamp: 
    secs: 0
    nsecs:         0
  frame_id: "world"
twist: 
  linear: 
    x: 0.03272834031440826
    y: -0.1259386712265084
    z: 0.0
  angular: 
    x: 0.0
    y: 0.0
    z: -1.3165451288223267
---
header: 
  seq: 67204
  stamp: 
    secs: 0
    nsecs:         0
  frame_id: "world"
twist: 
  linear: 
    x: -0.08983431854884753
    y: -1.3470076672727578
    z: 0.0
  angular: 
    x: 0.0
    y: 0.0
    z: -1.6373894214630127
---
header: 
  seq: 67515
  stamp: 
    secs: 0
    nsecs:         0
  frame_id: "world"
twist: 
  linear: 
    x: nan
    y: nan
    z: 0.0
  angular: 
    x: 0.0
    y: 0.0
    z: 2.5318877696990967
---
header: 
  seq: 67940
  stamp: 
    secs: 0
    nsecs:         0
  frame_id: "world"
twist: 
  linear: 
    x: 0.0
    y: 0.0
    z: 0.0
  angular: 
    x: 0.0
    y: 0.0
    z: -0.7617929577827454
---
header: 
  seq: 68365
  stamp: 
    secs: 0
    nsecs:         0
  frame_id: "world"
twist: 
  linear: 
    x: nan
    y: nan
    z: 0.0
  angular: 
    x: 0.0
    y: 0.0
    z: -1.2185068130493164
---
header: 
  seq: 68790
  stamp: 
    secs: 0
    nsecs:         0
  frame_id: "world"
twist: 
  linear: 
    x: 0.0
    y: 0.0
    z: 0.0
  angular: 
    x: 0.0
    y: 0.0
    z: -0.641612708568573
---
header: 
  seq: 69215
  stamp: 
    secs: 0
    nsecs:         0
  frame_id: "world"
twist: 
  linear: 
    x: nan
    y: nan
    z: 0.0
  angular: 
    x: 0.0
    y: 0.0
    z: 0.7414409518241882
---
header: 
  seq: 69642
  stamp: 
    secs: 0
    nsecs:         0
  frame_id: "world"
twist: 
  linear: 
    x: 0.0
    y: 0.0
    z: 0.0
  angular: 
    x: 0.0
    y: 0.0
    z: 1.343388319015503
---
header: 
  seq: 70066
  stamp: 
    secs: 0
    nsecs:         0
  frame_id: "world"
twist: 
  linear: 
    x: 0.0
    y: 0.0
    z: 0.0
  angular: 
    x: 0.0
    y: 0.0
    z: -1.5431044101715088
---
header: 
  seq: 70489
  stamp: 
    secs: 0
    nsecs:         0
  frame_id: "world"
twist: 
  linear: 
    x: nan
    y: nan
    z: 0.0
  angular: 
    x: 0.0
    y: 0.0
    z: -1.2485089302062988
---
header: 
  seq: 70911
  stamp: 
    secs: 0
    nsecs:         0
  frame_id: "world"
twist: 
  linear: 
    x: nan
    y: nan
    z: 0.0
  angular: 
    x: 0.0
    y: 0.0
    z: 0.28900375962257385
---
header: 
  seq: 71334
  stamp: 
    secs: 0
    nsecs:         0
  frame_id: "world"
twist: 
  linear: 
    x: 0.0
    y: 0.0
    z: 0.0
  angular: 
    x: 0.0
    y: 0.0
    z: 1.1411548852920532
---
header: 
  seq: 71758
  stamp: 
    secs: 0
    nsecs:         0
  frame_id: "world"
twist: 
  linear: 
    x: 0.0
    y: 0.0
    z: 0.0
  angular: 
    x: 0.0
    y: 0.0
    z: 0.361860066652298
---
header: 
  seq: 72181
  stamp: 
    secs: 0
    nsecs:         0
  frame_id: "world"
twist: 
  linear: 
    x: nan
    y: nan
    z: 0.0
  angular: 
    x: 0.0
    y: 0.0
    z: 0.18076497316360474
---
header: 
  seq: 72509
  stamp: 
    secs: 0
    nsecs:         0
  frame_id: "world"
twist: 
  linear: 
    x: nan
    y: nan
    z: 0.0
  angular: 
    x: 0.0
    y: 0.0
    z: 1.9130699634552002
---
header: 
  seq: 72940
  stamp: 
    secs: 0
    nsecs:         0
  frame_id: "world"
twist: 
  linear: 
    x: 0.0
    y: 0.0
    z: 0.0
  angular: 
    x: 0.0
    y: 0.0
    z: 1.4385197162628174
---
header: 
  seq: 73365
  stamp: 
    secs: 0
    nsecs:         0
  frame_id: "world"
twist: 
  linear: 
    x: nan
    y: nan
    z: 0.0
  angular: 
    x: 0.0
    y: 0.0
    z: 0.28722649812698364
---
header: 
  seq: 73799
  stamp: 
    secs: 0
    nsecs:         0
  frame_id: "world"
twist: 
  linear: 
    x: nan
    y: nan
    z: 0.0
  angular: 
    x: 0.0
    y: 0.0
    z: -1.377465009689331
---
header: 
  seq: 74227
  stamp: 
    secs: 0
    nsecs:         0
  frame_id: "world"
twist: 
  linear: 
    x: nan
    y: nan
    z: 0.0
  angular: 
    x: 0.0
    y: 0.0
    z: -1.1786836385726929
---
header: 
  seq: 74658
  stamp: 
    secs: 0
    nsecs:         0
  frame_id: "world"
twist: 
  linear: 
    x: 0.0
    y: 0.0
    z: 0.0
  angular: 
    x: 0.0
    y: 0.0
    z: 1.6043150424957275
---
header: 
  seq: 75066
  stamp: 
    secs: 0
    nsecs:         0
  frame_id: "world"
twist: 
  linear: 
    x: nan
    y: nan
    z: 0.0
  angular: 
    x: 0.0
    y: 0.0
    z: 0.17019705474376678
---
header: 
  seq: 75496
  stamp: 
    secs: 0
    nsecs:         0
  frame_id: "world"
twist: 
  linear: 
    x: 0.0
    y: 0.0
    z: 0.0
  angular: 
    x: 0.0
    y: 0.0
    z: -2.4249520301818848
---
header: 
  seq: 75931
  stamp: 
    secs: 0
    nsecs:         0
  frame_id: "world"
twist: 
  linear: 
    x: nan
    y: nan
    z: 0.0
  angular: 
    x: 0.0
    y: 0.0
    z: -0.7131397128105164
---
header: 
  seq: 76361
  stamp: 
    secs: 0
    nsecs:         0
  frame_id: "world"
twist: 
  linear: 
    x: nan
    y: nan
    z: 0.0
  angular: 
    x: 0.0
    y: 0.0
    z: 1.2891271114349365
---
header: 
  seq: 76789
  stamp: 
    secs: 0
    nsecs:         0
  frame_id: "world"
twist: 
  linear: 
    x: nan
    y: nan
    z: 0.0
  angular: 
    x: 0.0
    y: 0.0
    z: -0.9338508248329163
---
header: 
  seq: 77217
  stamp: 
    secs: 0
    nsecs:         0
  frame_id: "world"
twist: 
  linear: 
    x: nan
    y: nan
    z: 0.0
  angular: 
    x: 0.0
    y: 0.0
    z: 2.773822784423828
---
header: 
  seq: 77645
  stamp: 
    secs: 0
    nsecs:         0
  frame_id: "world"
twist: 
  linear: 
    x: nan
    y: nan
    z: 0.0
  angular: 
    x: 0.0
    y: 0.0
    z: -2.8291852474212646
---
header: 
  seq: 78075
  stamp: 
    secs: 0
    nsecs:         0
  frame_id: "world"
twist: 
  linear: 
    x: nan
    y: nan
    z: 0.0
  angular: 
    x: 0.0
    y: 0.0
    z: -0.485864520072937
---
header: 
  seq: 78502
  stamp: 
    secs: 0
    nsecs:         0
  frame_id: "world"
twist: 
  linear: 
    x: 0.0
    y: 0.0
    z: 0.0
  angular: 
    x: 0.0
    y: 0.0
    z: -2.33554744720459
---
header: 
  seq: 78936
  stamp: 
    secs: 0
    nsecs:         0
  frame_id: "world"
twist: 
  linear: 
    x: nan
    y: nan
    z: 0.0
  angular: 
    x: 0.0
    y: 0.0
    z: 1.7904841899871826
---
header: 
  seq: 79368
  stamp: 
    secs: 0
    nsecs:         0
  frame_id: "world"
twist: 
  linear: 
    x: nan
    y: nan
    z: 0.0
  angular: 
    x: 0.0
    y: 0.0
    z: 2.233844041824341
---
header: 
  seq: 79801
  stamp: 
    secs: 0
    nsecs:         0
  frame_id: "world"
twist: 
  linear: 
    x: nan
    y: nan
    z: 0.0
  angular: 
    x: 0.0
    y: 0.0
    z: -1.8776373863220215
---
header: 
  seq: 80235
  stamp: 
    secs: 0
    nsecs:         0
  frame_id: "world"
twist: 
  linear: 
    x: nan
    y: nan
    z: 0.0
  angular: 
    x: 0.0
    y: 0.0
    z: -1.4840867519378662
---
header: 
  seq: 80666
  stamp: 
    secs: 0
    nsecs:         0
  frame_id: "world"
twist: 
  linear: 
    x: nan
    y: nan
    z: 0.0
  angular: 
    x: 0.0
    y: 0.0
    z: 1.9378464221954346
---
header: 
  seq: 81108
  stamp: 
    secs: 0
    nsecs:         0
  frame_id: "world"
twist: 
  linear: 
    x: nan
    y: nan
    z: 0.0
  angular: 
    x: 0.0
    y: 0.0
    z: 1.1628234386444092
---
header: 
  seq: 81532
  stamp: 
    secs: 0
    nsecs:         0
  frame_id: "world"
twist: 
  linear: 
    x: nan
    y: nan
    z: 0.0
  angular: 
    x: 0.0
    y: 0.0
    z: 2.7730956077575684
---
header: 
  seq: 81961
  stamp: 
    secs: 0
    nsecs:         0
  frame_id: "world"
twist: 
  linear: 
    x: nan
    y: nan
    z: 0.0
  angular: 
    x: 0.0
    y: 0.0
    z: -1.5504883527755737
---
header: 
  seq: 82391
  stamp: 
    secs: 0
    nsecs:         0
  frame_id: "world"
twist: 
  linear: 
    x: nan
    y: nan
    z: 0.0
  angular: 
    x: 0.0
    y: 0.0
    z: 1.0614254474639893
---
header: 
  seq: 82819
  stamp: 
    secs: 0
    nsecs:         0
  frame_id: "world"
twist: 
  linear: 
    x: nan
    y: nan
    z: 0.0
  angular: 
    x: 0.0
    y: 0.0
    z: 0.7893931269645691
---
header: 
  seq: 83246
  stamp: 
    secs: 0
    nsecs:         0
  frame_id: "world"
twist: 
  linear: 
    x: nan
    y: nan
    z: 0.0
  angular: 
    x: 0.0
    y: 0.0
    z: -2.523287773132324
---
header: 
  seq: 83678
  stamp: 
    secs: 0
    nsecs:         0
  frame_id: "world"
twist: 
  linear: 
    x: nan
    y: nan
    z: 0.0
  angular: 
    x: 0.0
    y: 0.0
    z: 0.6129385232925415
---
header: 
  seq: 84104
  stamp: 
    secs: 0
    nsecs:         0
  frame_id: "world"
twist: 
  linear: 
    x: nan
    y: nan
    z: 0.0
  angular: 
    x: 0.0
    y: 0.0
    z: -0.65350341796875
---
header: 
  seq: 84531
  stamp: 
    secs: 0
    nsecs:         0
  frame_id: "world"
twist: 
  linear: 
    x: nan
    y: nan
    z: 0.0
  angular: 
    x: 0.0
    y: 0.0
    z: 1.2851684093475342
---
header: 
  seq: 84957
  stamp: 
    secs: 0
    nsecs:         0
  frame_id: "world"
twist: 
  linear: 
    x: nan
    y: nan
    z: 0.0
  angular: 
    x: 0.0
    y: 0.0
    z: 2.216137170791626
---
header: 
  seq: 85387
  stamp: 
    secs: 0
    nsecs:         0
  frame_id: "world"
twist: 
  linear: 
    x: nan
    y: nan
    z: 0.0
  angular: 
    x: 0.0
    y: 0.0
    z: -0.9943210482597351
---
header: 
  seq: 85818
  stamp: 
    secs: 0
    nsecs:         0
  frame_id: "world"
twist: 
  linear: 
    x: nan
    y: nan
    z: 0.0
  angular: 
    x: 0.0
    y: 0.0
    z: -2.3308255672454834
---
header: 
  seq: 86246
  stamp: 
    secs: 0
    nsecs:         0
  frame_id: "world"
twist: 
  linear: 
    x: nan
    y: nan
    z: 0.0
  angular: 
    x: 0.0
    y: 0.0
    z: -1.4380393028259277
---
header: 
  seq: 86675
  stamp: 
    secs: 0
    nsecs:         0
  frame_id: "world"
twist: 
  linear: 
    x: nan
    y: nan
    z: 0.0
  angular: 
    x: 0.0
    y: 0.0
    z: 1.0116899013519287
---
header: 
  seq: 87104
  stamp: 
    secs: 0
    nsecs:         0
  frame_id: "world"
twist: 
  linear: 
    x: nan
    y: nan
    z: 0.0
  angular: 
    x: 0.0
    y: 0.0
    z: -1.0960544347763062
---
header: 
  seq: 87529
  stamp: 
    secs: 0
    nsecs:         0
  frame_id: "world"
twist: 
  linear: 
    x: nan
    y: nan
    z: 0.0
  angular: 
    x: 0.0
    y: 0.0
    z: 2.9294049739837646
---
header: 
  seq: 87958
  stamp: 
    secs: 0
    nsecs:         0
  frame_id: "world"
twist: 
  linear: 
    x: nan
    y: nan
    z: 0.0
  angular: 
    x: 0.0
    y: 0.0
    z: -2.368845224380493
---
header: 
  seq: 88387
  stamp: 
    secs: 0
    nsecs:         0
  frame_id: "world"
twist: 
  linear: 
    x: nan
    y: nan
    z: 0.0
  angular: 
    x: 0.0
    y: 0.0
    z: -0.5943100452423096
---
header: 
  seq: 88820
  stamp: 
    secs: 0
    nsecs:         0
  frame_id: "world"
twist: 
  linear: 
    x: nan
    y: nan
    z: 0.0
  angular: 
    x: 0.0
    y: 0.0
    z: 2.519418239593506
---
header: 
  seq: 89246
  stamp: 
    secs: 0
    nsecs:         0
  frame_id: "world"
twist: 
  linear: 
    x: nan
    y: nan
    z: 0.0
  angular: 
    x: 0.0
    y: 0.0
    z: 2.219764471054077
---
header: 
  seq: 89673
  stamp: 
    secs: 0
    nsecs:         0
  frame_id: "world"
twist: 
  linear: 
    x: nan
    y: nan
    z: 0.0
  angular: 
    x: 0.0
    y: 0.0
    z: -1.972033977508545
---
header: 
  seq: 90101
  stamp: 
    secs: 0
    nsecs:         0
  frame_id: "world"
twist: 
  linear: 
    x: nan
    y: nan
    z: 0.0
  angular: 
    x: 0.0
    y: 0.0
    z: -1.314139485359192
---
header: 
  seq: 90527
  stamp: 
    secs: 0
    nsecs:         0
  frame_id: "world"
twist: 
  linear: 
    x: nan
    y: nan
    z: 0.0
  angular: 
    x: 0.0
    y: 0.0
    z: 1.9397127628326416
---
header: 
  seq: 90938
  stamp: 
    secs: 0
    nsecs:         0
  frame_id: "world"
twist: 
  linear: 
    x: nan
    y: nan
    z: 0.0
  angular: 
    x: 0.0
    y: 0.0
    z: 0.5199405550956726
---
header: 
  seq: 91370
  stamp: 
    secs: 0
    nsecs:         0
  frame_id: "world"
twist: 
  linear: 
    x: nan
    y: nan
    z: 0.0
  angular: 
    x: 0.0
    y: 0.0
    z: 0.13407443463802338
---
header: 
  seq: 91796
  stamp: 
    secs: 0
    nsecs:         0
  frame_id: "world"
twist: 
  linear: 
    x: nan
    y: nan
    z: 0.0
  angular: 
    x: 0.0
    y: 0.0
    z: 2.6578187942504883
---
header: 
  seq: 92226
  stamp: 
    secs: 0
    nsecs:         0
  frame_id: "world"
twist: 
  linear: 
    x: nan
    y: nan
    z: 0.0
  angular: 
    x: 0.0
    y: 0.0
    z: 2.503000497817993
---
header: 
  seq: 92652
  stamp: 
    secs: 0
    nsecs:         0
  frame_id: "world"
twist: 
  linear: 
    x: nan
    y: nan
    z: 0.0
  angular: 
    x: 0.0
    y: 0.0
    z: -0.5526339411735535
---
header: 
  seq: 93082
  stamp: 
    secs: 0
    nsecs:         0
  frame_id: "world"
twist: 
  linear: 
    x: nan
    y: nan
    z: 0.0
  angular: 
    x: 0.0
    y: 0.0
    z: 0.05172334611415863
---
header: 
  seq: 93512
